[
  {
    "id": "P00824759LZ",
    "name": "Construction of Babuyan River Flood Control Strucure Downstream (RS), Palawan",
    "year": 2024,
    "region": "Region IV-B",
    "contractor": "AZARRAGA CONSTRUCTION",
    "budget": 17963475.0,
    "lat": 9.99653,
    "lng": 118.89245,
    "status": "Completed",
    "flags": {
      "poorlySituated": false,
      "similarProject": true,
      "healthy": true,
      "other": true
    }
  },
  {
    "id": "P00824758LZ",
    "name": "Construction of Flood Control Strucurue along Langogan River Downstream (LS), Palawan",
    "year": 2024,
    "region": "Region IV-B",
    "contractor": "AZARRAGA CONSTRUCTION",
    "budget": 17370000.0,
    "lat": 9.99761,
    "lng": 118.89251,
    "status": "In Progress",
    "flags": {
      "poorlySituated": false,
      "similarProject": true,
      "healthy": true,
      "other": false
    }
  },
  {
    "id": "P00824750LZ",
    "name": "Construction of Babuyan River Flood Control Strucure Upstream (LS), Palawan",
    "year": 2024,
    "region": "Region IV-B",
    "contractor": "F.F. GALANG CONSTRUCTION",
    "budget": 18335000.0,
    "lat": 9.99671,
    "lng": 118.89323,
    "status": "In Progress",
    "flags": {
      "poorlySituated": false,
      "similarProject": false,
      "healthy": true,
      "other": true
    }
  },
  {
    "id": "P00737551LZ",
    "name": "Construction of Flood Control Structure, Barangay Maoyon, Puerto Princesa City, Palawan",
    "year": 2023,
    "region": "Region IV-B",
    "contractor": "PALBIC CONSTRUCTION AND SUPPLY",
    "budget": 4900000.0,
    "lat": 10.00265833,
    "lng": 118.89970167,
    "status": "In Progress",
    "flags": {
      "poorlySituated": true,
      "similarProject": true,
      "healthy": false,
      "other": true
    }
  },
  {
    "id": "P00823565LZ",
    "name": "Construction of Tanabag River Waterway, (Upstream Rightside), Palawan",
    "year": 2024,
    "region": "Region IV-B",
    "contractor": "OCTAGON CONCRETE SOLUTIONS INC. / MAC BUILDERS CORP. (FORMERLY: MAC BUILDERS DEVELOPMENT CORPORATION)",
    "budget": 154400000.0,
    "lat": 9.99904334,
    "lng": 118.99017684,
    "status": "Proposed",
    "flags": {
      "poorlySituated": false,
      "similarProject": false,
      "healthy": false,
      "other": false
    }
  },
  {
    "id": "P00824756LZ",
    "name": "Construction of Flood Control Strucurue along Langogan River Upstream (LS), Palawan",
    "year": 2024,
    "region": "Region IV-B",
    "contractor": "MAINTIN CONSTRUCTION & SUPPLY",
    "budget": 17370000.0,
    "lat": 10.02967,
    "lng": 119.12203,
    "status": "Proposed",
    "flags": {
      "poorlySituated": true,
      "similarProject": false,
      "healthy": false,
      "other": false
    }
  },
  {
    "id": "P00824757LZ",
    "name": "Construction of Flood Control Strucuruealong Langogan River Upstream (RS), Palawan",
    "year": 2024,
    "region": "Region IV-B",
    "contractor": "LOUIESE TRADING AND CONSTRUCTION",
    "budget": 17370000.0,
    "lat": 10.02881,
    "lng": 119.12383,
    "status": "In Progress",
    "flags": {
      "poorlySituated": false,
      "similarProject": false,
      "healthy": false,
      "other": false
    }
  },
  {
    "id": "P00824760LZ",
    "name": "Construction of Flood Control Strucurue along Langogan River Downstream (RS), Palawan",
    "year": 2024,
    "region": "Region IV-B",
    "contractor": "TAGUSAO CONSTRUCTION & TRADING INC. (FORMERLY: TAGUSAO CONSTRUCTION & TRADING)",
    "budget": 17370000.0,
    "lat": 10.02751,
    "lng": 119.12416,
    "status": "In Progress",
    "flags": {
      "poorlySituated": true,
      "similarProject": false,
      "healthy": true,
      "other": false
    }
  },
  {
    "id": "P00726266LZ",
    "name": "Construction of Magsarongsong Bridge Flood Control Structure, Sta. 0 + 000.00 - Sta. 0 + 084.00, Bank I UPSTREAM (L/S), Sta. 0 + 000.00 - Sta. 0 + 084.00, BANK II UPSTREAM (L/S), Roxas, Palawan",
    "year": 2023,
    "region": "Region IV-B",
    "contractor": "PANAAD CONSTRUCTION",
    "budget": 9064943.69,
    "lat": 10.25288,
    "lng": 119.206224,
    "status": "In Progress",
    "flags": {
      "poorlySituated": false,
      "similarProject": true,
      "healthy": true,
      "other": false
    }
  },
  {
    "id": "P00821520LZ",
    "name": "Construction of Slope Protection along Sinucalan River, Barangay Poblacion Norte, Sta. Barbara, Pangasinan",
    "year": 2024,
    "region": "Region I",
    "contractor": "ALCEL CONSTRUCTION",
    "budget": 48250000.0,
    "lat": 16.006788,
    "lng": 120.400763,
    "status": "Completed",
    "flags": {
      "poorlySituated": false,
      "similarProject": false,
      "healthy": false,
      "other": false
    }
  },
  {
    "id": "P00820974LZ",
    "name": "Construction of Flood Control Structure along Tulariquin River (RS), Roxas, Palawan",
    "year": 2024,
    "region": "Region IV-B",
    "contractor": "YURICH BUILDERS AND CONSTRUCTION SUPPLY INC. / F.F. GALANG CONSTRUCTION",
    "budget": 48249976.12,
    "lat": 10.147,
    "lng": 119.21562,
    "status": "Completed",
    "flags": {
      "poorlySituated": false,
      "similarProject": true,
      "healthy": true,
      "other": false
    }
  },
  {
    "id": "P00820979LZ",
    "name": "Construction of Slope Protection Structure along Tagumpay Bridge, Roxas, Palawan",
    "year": 2024,
    "region": "Region IV-B",
    "contractor": "YURICH BUILDERS AND CONSTRUCTION SUPPLY INC. / SEVEN DIGIT CONSTRUCTION AND TRUCKING SERVICES CORP. (FORMERLY: SEVEN DIGIT CONSTRUCTION & SUPPLIES)",
    "budget": 44099975.3,
    "lat": 10.27601,
    "lng": 119.22557,
    "status": "In Progress",
    "flags": {
      "poorlySituated": true,
      "similarProject": false,
      "healthy": false,
      "other": false
    }
  },
  {
    "id": "P00632934LZ",
    "name": "Construction of Sea Wall, Barangay Caramay, Roxas, Palawan",
    "year": 2022,
    "region": "Region IV-B",
    "contractor": "A.P. CONSEBIDO CONSTRUCTION AND TRADING",
    "budget": 4949962.82,
    "lat": 10.183842,
    "lng": 119.231534,
    "status": "In Progress",
    "flags": {
      "poorlySituated": false,
      "similarProject": true,
      "healthy": true,
      "other": false
    }
  },
  {
    "id": "P00844779LZ",
    "name": "Construction/Improvement of Storm Drainage System at Purok Zambales, Brgy. 3, Roxas, Palawan",
    "year": 2024,
    "region": "Region IV-B",
    "contractor": "M.G.M. CONSTRUCTION",
    "budget": 9899934.12,
    "lat": 10.32404,
    "lng": 119.34648,
    "status": "In Progress",
    "flags": {
      "poorlySituated": false,
      "similarProject": false,
      "healthy": false,
      "other": false
    }
  },
  {
    "id": "P00820975LZ",
    "name": "Construction of Slope Protection Structure along Iraan Bridge, Roxas, Palawan",
    "year": 2024,
    "region": "Region IV-B",
    "contractor": "YURICH BUILDERS AND CONSTRUCTION SUPPLY INC. / SEVEN DIGIT CONSTRUCTION AND TRUCKING SERVICES CORP. (FORMERLY: SEVEN DIGIT CONSTRUCTION & SUPPLIES)",
    "budget": 44099956.7,
    "lat": 10.42931,
    "lng": 119.37435,
    "status": "Completed",
    "flags": {
      "poorlySituated": false,
      "similarProject": true,
      "healthy": false,
      "other": false
    }
  },
  {
    "id": "P00561401LZ",
    "name": "Construction of Seawall, Brgy. Buenasuerte, El Nido, Palawan",
    "year": 2021,
    "region": "Region IV-B",
    "contractor": "LOUIESE TRADING AND CONSTRUCTION",
    "budget": 9899984.53,
    "lat": 11.18027778,
    "lng": 119.3863889,
    "status": "Completed",
    "flags": {
      "poorlySituated": true,
      "similarProject": false,
      "healthy": false,
      "other": false
    }
  },
  {
    "id": "P00820977LZ",
    "name": "Construction of Slope Protection Structure along Lamoro Bridge 1, El Nido, Palawan",
    "year": 2024,
    "region": "Region IV-B",
    "contractor": "AR LUSTRE CONSTRUCTION CORPORATION (FORMERLY:A.R. LUSTRE JR. CONSTRUCTION) / A.R.L. CONSTRUCTION",
    "budget": 44099949.37,
    "lat": 11.19344,
    "lng": 119.41688,
    "status": "Completed",
    "flags": {
      "poorlySituated": true,
      "similarProject": false,
      "healthy": true,
      "other": true
    }
  },
  {
    "id": "P00726267LZ",
    "name": "Construction of Lamoro Bridge III Flood Control Structure, Sta. 0 + 000 - Sta. 0 + 080.85, El Nido, Palawan",
    "year": 2023,
    "region": "Region IV-B",
    "contractor": "12-30 CONSTRUCTION AND SUPPLY",
    "budget": 9064950.34,
    "lat": 11.243519,
    "lng": 119.430384,
    "status": "Proposed",
    "flags": {
      "poorlySituated": true,
      "similarProject": true,
      "healthy": false,
      "other": false
    }
  },
  {
    "id": "P00742461LZ",
    "name": "Construction of Drainage System, Tumarbong, Roxas, Palawan",
    "year": 2023,
    "region": "Region IV-B",
    "contractor": "AFG CONSTRUCTION CORPORATION",
    "budget": 4949974.91,
    "lat": 10.379389,
    "lng": 119.461795,
    "status": "In Progress",
    "flags": {
      "poorlySituated": false,
      "similarProject": false,
      "healthy": false,
      "other": true
    }
  },
  {
    "id": "P00820972LZ",
    "name": "Construction of Abongan CIS Drainage Canal, Taytay, Palawan",
    "year": 2024,
    "region": "Region IV-B",
    "contractor": "REINASTAR TRADING AND CONSTRUCTION SUPPLY",
    "budget": 19599983.05,
    "lat": 10.68633,
    "lng": 119.46259,
    "status": "Completed",
    "flags": {
      "poorlySituated": false,
      "similarProject": false,
      "healthy": true,
      "other": false
    }
  },
  {
    "id": "P00726264LZ",
    "name": "Construction of Bato Bridge Flood Control Structure, Taytay, Palawan",
    "year": 2023,
    "region": "Region IV-B",
    "contractor": "MAC BUILDERS CIVIL ENGINEERING CONSTRUCTION",
    "budget": 9064927.16,
    "lat": 10.717258,
    "lng": 119.493683,
    "status": "Completed",
    "flags": {
      "poorlySituated": false,
      "similarProject": true,
      "healthy": false,
      "other": false
    }
  },
  {
    "id": "P00820412LZ",
    "name": "Construction of Slope Protection Structure along Balite Bridge, Taytay, Palawan",
    "year": 2024,
    "region": "Region IV-B",
    "contractor": "JASMIG CONSTRUCTION CORPORATION (FORMERLY: JASMIG CONSTRUCTION SUPPLY)",
    "budget": 96499945.21,
    "lat": 10.64284,
    "lng": 119.496278,
    "status": "In Progress",
    "flags": {
      "poorlySituated": true,
      "similarProject": true,
      "healthy": false,
      "other": false
    }
  },
  {
    "id": "P00820414LZ",
    "name": "Construction of Slope Protection Structure along Talog Bridge, Taytay, Palawan",
    "year": 2024,
    "region": "Region IV-B",
    "contractor": "JASMIG CONSTRUCTION CORPORATION (FORMERLY: JASMIG CONSTRUCTION SUPPLY)",
    "budget": 96499980.15,
    "lat": 10.64781,
    "lng": 119.50026,
    "status": "Completed",
    "flags": {
      "poorlySituated": false,
      "similarProject": false,
      "healthy": false,
      "other": true
    }
  },
  {
    "id": "P00843194LZ",
    "name": "Construction of Flood Mitigation Structure along Balingcaguing River (Boboy Section), Sta. 000+180 - Sta. 000+610, Barangay Boboy, Agno, Pangasinan",
    "year": 2024,
    "region": "Region I",
    "contractor": "VILLAR GENERAL CONSTRUCTION AND SUPPLIES / RANIA CONSTRUCTION AND SUPPLIES",
    "budget": 96500000.0,
    "lat": 16.132714,
    "lng": 119.778189,
    "status": "Completed",
    "flags": {
      "poorlySituated": true,
      "similarProject": false,
      "healthy": false,
      "other": true
    }
  },
  {
    "id": "P00843195LZ",
    "name": "Construction of Flood Mitigation Structure along Balingcaguing River (Boboy Section), Sta. 000+610 - Sta. 001+040, Barangay Boboy, Agno, Pangasinan",
    "year": 2024,
    "region": "Region I",
    "contractor": "RANIA CONSTRUCTION AND SUPPLIES / JHI CONSTRUCTION & SUPPLY",
    "budget": 96500000.0,
    "lat": 16.134808,
    "lng": 119.781525,
    "status": "In Progress",
    "flags": {
      "poorlySituated": false,
      "similarProject": true,
      "healthy": false,
      "other": true
    }
  },
  {
    "id": "P00726326LZ",
    "name": "Construction of Flood Mitigation Structure along Balingcaguing River (Aloleng Section), Sta. 002+019.5 - Sta. 002+536.1, Barangay Aloleng, Agno, Pangasinan",
    "year": 2023,
    "region": "Region I",
    "contractor": "SAMANTHA ENTERPRISES / ALCEL CONSTRUCTION",
    "budget": 77200000.0,
    "lat": 16.128232,
    "lng": 119.787802,
    "status": "In Progress",
    "flags": {
      "poorlySituated": true,
      "similarProject": true,
      "healthy": false,
      "other": true
    }
  },
  {
    "id": "P00820714LZ",
    "name": "Construction of Flood Mitigation Facilities along Balingcaguing River (Aloleng Section), Sta. 002+059 - Sta. 002+303, Barangay Aloleng, Agno, Pangasinan",
    "year": 2024,
    "region": "Region I",
    "contractor": "JONIK TRADING & CONSTRUCTION",
    "budget": 49000000.0,
    "lat": 16.131694,
    "lng": 119.787876,
    "status": "Completed",
    "flags": {
      "poorlySituated": false,
      "similarProject": false,
      "healthy": true,
      "other": true
    }
  },
  {
    "id": "P00820122LZ",
    "name": "Construction of Flood Mitigation Structure along Balingcaguing River (Aloleng Section), Sta. 002 + 896.6 - Sta. 003 + 296.6, Barangay Aloleng, Agno, Pangasinan",
    "year": 2024,
    "region": "Region I",
    "contractor": "SAMANTHA ENTERPRISES / ALCEL CONSTRUCTION",
    "budget": 96500000.0,
    "lat": 16.1282539167,
    "lng": 119.7881125833,
    "status": "In Progress",
    "flags": {
      "poorlySituated": false,
      "similarProject": true,
      "healthy": false,
      "other": false
    }
  },
  {
    "id": "P00820127LZ",
    "name": "Construction of Flood Mitigation Structure along Balingcaguing River (Poblacion West Section), Sta. 001+848 - Sta. 002+278, Barangay Poblacion West, Agno, Pangasinan",
    "year": 2024,
    "region": "Region I",
    "contractor": "ALCEL CONSTRUCTION",
    "budget": 96500000.0,
    "lat": 16.128628,
    "lng": 119.78954,
    "status": "Completed",
    "flags": {
      "poorlySituated": false,
      "similarProject": false,
      "healthy": false,
      "other": true
    }
  },
  {
    "id": "P00820126LZ",
    "name": "Construction of Flood Mitigation Structure along Balingcaguing River (Poblacion West Section), Sta. 001+418 - Sta. 001+848, Barangay Poblacion West, Agno, Pangasinan",
    "year": 2024,
    "region": "Region I",
    "contractor": "RAMDC CONSTRUCTION AND TRADING / ALCEL CONSTRUCTION",
    "budget": 96500000.0,
    "lat": 16.124765,
    "lng": 119.790688,
    "status": "In Progress",
    "flags": {
      "poorlySituated": true,
      "similarProject": true,
      "healthy": true,
      "other": false
    }
  },
  {
    "id": "P00726365LZ",
    "name": "Construction of Flood Mitigation Structure along Balingcaguing River (Poblacion West Section) Sta. 001+900-Sta. 002+680, barangay Poblacion West, Agno, Pangasinan",
    "year": 2023,
    "region": "Region I",
    "contractor": "ALCEL CONSTRUCTION",
    "budget": 51145000.0,
    "lat": 16.121518,
    "lng": 119.792725,
    "status": "Completed",
    "flags": {
      "poorlySituated": false,
      "similarProject": true,
      "healthy": false,
      "other": false
    }
  },
  {
    "id": "P00820715LZ",
    "name": "Construction of Flood Mitigation Facilities along Balingcaguing River (Poblacion East Section), Sta. 003+436 - Sta. 003+680, Barangay Poblacion East, Agno, Pangasinan",
    "year": 2024,
    "region": "Region I",
    "contractor": "JONIK TRADING & CONSTRUCTION",
    "budget": 49000000.0,
    "lat": 16.113559,
    "lng": 119.799836,
    "status": "Completed",
    "flags": {
      "poorlySituated": true,
      "similarProject": false,
      "healthy": false,
      "other": false
    }
  },
  {
    "id": "P00726328LZ",
    "name": "Construction of Flood Mitigation Structure along Balingcaguing River, Sta. 004+564.2 - Sta. 005+073.8, Barangay Poblacion East, Agno, Pangasinan",
    "year": 2023,
    "region": "Region I",
    "contractor": "JONIK TRADING & CONSTRUCTION / ALCEL CONSTRUCTION",
    "budget": 77200000.0,
    "lat": 16.111824,
    "lng": 119.801599,
    "status": "Completed",
    "flags": {
      "poorlySituated": false,
      "similarProject": true,
      "healthy": false,
      "other": true
    }
  },
  {
    "id": "P00820123LZ",
    "name": "Construction of Flood Mitigation Structure along Balingcaguing River (Bangan-Oda Section), Sta. 007+850 - Sta. 008+250, Barangay Bangan-Oda, Agno, Pangasinan",
    "year": 2024,
    "region": "Region I",
    "contractor": "JONIK TRADING & CONSTRUCTION / ALCEL CONSTRUCTION",
    "budget": 96500000.0,
    "lat": 16.108686,
    "lng": 119.829299,
    "status": "Proposed",
    "flags": {
      "poorlySituated": true,
      "similarProject": false,
      "healthy": false,
      "other": false
    }
  },
  {
    "id": "P00631082LZ",
    "name": "Construction of Flood Control Structure, Brgy. Hermosa, Dasol, Pangasinan",
    "year": 2022,
    "region": "Region I",
    "contractor": "BERSON'S CONSTRUCTION & TRADING",
    "budget": 19600000.0,
    "lat": 15.941711,
    "lng": 119.865492,
    "status": "Completed",
    "flags": {
      "poorlySituated": false,
      "similarProject": false,
      "healthy": false,
      "other": true
    }
  },
  {
    "id": "P00820124LZ",
    "name": "Construction of Flood Mitigation Structure along Balingcaguing River (Caranglaan Section), Sta. 017+829 - Sta. 018+229, Barangay Caranglaan, Mabini, Pangasinan",
    "year": 2024,
    "region": "Region I",
    "contractor": "ALCEL CONSTRUCTION",
    "budget": 96500000.0,
    "lat": 16.0883,
    "lng": 119.8757,
    "status": "Proposed",
    "flags": {
      "poorlySituated": true,
      "similarProject": false,
      "healthy": true,
      "other": false
    }
  },
  {
    "id": "P00726265LZ",
    "name": "Construction of Buluang Bridge I Flood Control Structure, Sta. 0 + 044.64 - Sta. 0 + 095.00 (UPSTREAM - BK.I), Sta. 0 + 000 - Sta. 0 + 095.00 (UPSTREAM - BK. II), Sta. 0 + 000.00 - Sta. 0 + 026.00 (DOWNSTREASM - BK. II), Busuanga, Palawan",
    "year": 2023,
    "region": "Region IV-B",
    "contractor": "MAC BUILDERS CIVIL ENGINEERING CONSTRUCTION",
    "budget": 9064955.46,
    "lat": 12.221611,
    "lng": 119.877454,
    "status": "In Progress",
    "flags": {
      "poorlySituated": false,
      "similarProject": false,
      "healthy": false,
      "other": false
    }
  },
  {
    "id": "P00823306LZ",
    "name": "Construction of Slope Protection Structure along Balingcaguing River (Caranglaan Section), Sta.017+092 - Sta. 017+457, Caranglaan, Mabini, Pangasinan",
    "year": 2024,
    "region": "Region I",
    "contractor": "IGWT-JAV CONSTRUCTION & DEVELOPMENT CORPORATION",
    "budget": 96500000.0,
    "lat": 16.082542,
    "lng": 119.886445,
    "status": "Completed",
    "flags": {
      "poorlySituated": false,
      "similarProject": true,
      "healthy": false,
      "other": false
    }
  },
  {
    "id": "P00823307LZ",
    "name": "Construction of Slope Protection Structure along Balingcaguing River (Caranglaan Section), Sta.017+457 - Sta. 017+822, Caranglaan, Mabini, Pangasinan",
    "year": 2024,
    "region": "Region I",
    "contractor": "IGWT-JAV CONSTRUCTION & DEVELOPMENT CORPORATION",
    "budget": 96500000.0,
    "lat": 16.081463,
    "lng": 119.889496,
    "status": "Completed",
    "flags": {
      "poorlySituated": false,
      "similarProject": false,
      "healthy": false,
      "other": false
    }
  },
  {
    "id": "P00821091LZ",
    "name": "Construction of Flood Control along Balingcaguing River, Barangay Anapao, Burgos, Pangasinan",
    "year": 2024,
    "region": "Region I",
    "contractor": "CDC CONSTRUCTION & SUPPLIES",
    "budget": 72686695.0,
    "lat": 16.079879,
    "lng": 119.890938,
    "status": "In Progress",
    "flags": {
      "poorlySituated": false,
      "similarProject": false,
      "healthy": true,
      "other": true
    }
  },
  {
    "id": "P00726363LZ",
    "name": "Construction of Flood Mitigation Structure along Balingcaguing River (Caranglaan Section), Sta. 017 + 822 - Sta. 018 + 602, Barangay Caranglaan, Mabini, Pangasinan",
    "year": 2023,
    "region": "Region I",
    "contractor": "ALCEL CONSTRUCTION",
    "budget": 53075000.0,
    "lat": 16.076452,
    "lng": 119.892779,
    "status": "Completed",
    "flags": {
      "poorlySituated": false,
      "similarProject": true,
      "healthy": true,
      "other": false
    }
  },
  {
    "id": "P00620955LZ",
    "name": "Construction of Flood Mitigation Structure along Balingcaguing River (Tambacan Section) Sta.018+674 - Sta.019+323, Brgy. Tambacan, Burgos, Pangasinan",
    "year": 2022,
    "region": "Region I",
    "contractor": "ALCEL CONSTRUCTION",
    "budget": 49000000.0,
    "lat": 16.075354,
    "lng": 119.894204,
    "status": "Completed",
    "flags": {
      "poorlySituated": false,
      "similarProject": false,
      "healthy": false,
      "other": false
    }
  },
  {
    "id": "P00726330LZ",
    "name": "Construction of Flood Mitigation Structure along Bayambang River, Sta. 000+500 - Sta. 001+013.1, R/S, Barangay Bayambang, Infanta, Pangasinan",
    "year": 2023,
    "region": "Region I",
    "contractor": "CHIARA2300 INCORPORATED / EJR BUILDERS & CONSTRUCTION SUPPLY",
    "budget": 77200000.0,
    "lat": 15.88173,
    "lng": 119.897591,
    "status": "Proposed",
    "flags": {
      "poorlySituated": false,
      "similarProject": false,
      "healthy": true,
      "other": true
    }
  },
  {
    "id": "P00727153LZ",
    "name": "Construction of Gama River Flood Control Structure, Package 1, Sta. Cruz, Zambales",
    "year": 2023,
    "region": "Region III",
    "contractor": "E.R. DELA CRUZ CONSTRUCTION & SUPPLY",
    "budget": 48999232.94,
    "lat": 15.784678,
    "lng": 119.910846,
    "status": "Completed",
    "flags": {
      "poorlySituated": false,
      "similarProject": true,
      "healthy": true,
      "other": false
    }
  },
  {
    "id": "P00824717LZ",
    "name": "Construction of Gama River Slope Protection/ Flood Control Structure Phase 3, Sta. Cruz, Zambales",
    "year": 2024,
    "region": "Region III",
    "contractor": "E.R. DELA CRUZ CONSTRUCTION & SUPPLY",
    "budget": 48249239.42,
    "lat": 15.788027,
    "lng": 119.910956,
    "status": "Proposed",
    "flags": {
      "poorlySituated": true,
      "similarProject": true,
      "healthy": false,
      "other": true
    }
  },
  {
    "id": "P00824716LZ",
    "name": "Construction of Gama River Slope Protection/ Flood Control Structure Phase 2, Sta. Cruz, Zambales",
    "year": 2024,
    "region": "Region III",
    "contractor": "E.R. DELA CRUZ CONSTRUCTION & SUPPLY",
    "budget": 48249959.91,
    "lat": 15.788168,
    "lng": 119.911072,
    "status": "Completed",
    "flags": {
      "poorlySituated": true,
      "similarProject": false,
      "healthy": true,
      "other": false
    }
  },
  {
    "id": "P00640535LZ",
    "name": "Construction of Flood Mitigation Structure, Bayto River (Upstream North Approach), Sta. Cruz, Zambales",
    "year": 2022,
    "region": "Region III",
    "contractor": "BIG BERTHA CONSTRUCTION & DEVELOPMENT",
    "budget": 29392945.08,
    "lat": 15.722124,
    "lng": 119.911692,
    "status": "Proposed",
    "flags": {
      "poorlySituated": false,
      "similarProject": true,
      "healthy": false,
      "other": true
    }
  },
  {
    "id": "P00740644LZ",
    "name": "Construction of Drainage System, Maestre St., Brgy. Poblacion, Sta. Cruz, Zambales",
    "year": 2023,
    "region": "Region III",
    "contractor": "GASAT BUILDERS AND SUPPLIES INC.",
    "budget": 19599664.01,
    "lat": 15.761437,
    "lng": 119.914663,
    "status": "In Progress",
    "flags": {
      "poorlySituated": false,
      "similarProject": true,
      "healthy": false,
      "other": true
    }
  },
  {
    "id": "P00631277LZ",
    "name": "Construction of Line Canal, Barangay Libertador, Candelaria, Zambales",
    "year": 2022,
    "region": "Region III",
    "contractor": "JAM-C BUILDERS",
    "budget": 9800000.0,
    "lat": 15.622302,
    "lng": 119.915881,
    "status": "Completed",
    "flags": {
      "poorlySituated": true,
      "similarProject": false,
      "healthy": false,
      "other": false
    }
  },
  {
    "id": "P00726327LZ",
    "name": "Construction of Flood Mitigation Structure along Nayom River, Sta. 005+775.6 - Sta. 006+285.2, Barangay Maya, Infanta, Pangasinan",
    "year": 2023,
    "region": "Region I",
    "contractor": "ALCEL CONSTRUCTION",
    "budget": 77200000.0,
    "lat": 15.816277,
    "lng": 119.923106,
    "status": "Completed",
    "flags": {
      "poorlySituated": true,
      "similarProject": true,
      "healthy": false,
      "other": false
    }
  },
  {
    "id": "P00843196LZ",
    "name": "Construction of Flood Mitigation Structure along Balingcaguing River (Calzada Section), Sta. 025+700 - Sta. 026+130, Barangay Calzada, Mabini, Pangasinan",
    "year": 2024,
    "region": "Region I",
    "contractor": "ANORE CONSTRUCTION",
    "budget": 96500000.0,
    "lat": 16.078171,
    "lng": 119.926663,
    "status": "Completed",
    "flags": {
      "poorlySituated": false,
      "similarProject": true,
      "healthy": true,
      "other": false
    }
  },
  {
    "id": "P00824834LZ",
    "name": "Construction of Slope Protection Structure along Nayom River, Sta.006+285.2 - Sta. 006+922.2, Maya, lnfanta, Pangasinan",
    "year": 2024,
    "region": "Region I",
    "contractor": "IGWT-JAV CONSTRUCTION & DEVELOPMENT CORPORATION",
    "budget": 96500000.0,
    "lat": 15.807302,
    "lng": 119.928258,
    "status": "Completed",
    "flags": {
      "poorlySituated": false,
      "similarProject": false,
      "healthy": true,
      "other": false
    }
  },
  {
    "id": "P00843197LZ",
    "name": "Construction of Flood Mitigation Structure along Balingcaguing River (Calzada Section), Sta. 026+130 - Sta. 026+560, Barangay Calzada, Mabini, Pangasinan",
    "year": 2024,
    "region": "Region I",
    "contractor": "ANORE CONSTRUCTION",
    "budget": 96500000.0,
    "lat": 16.075554,
    "lng": 119.929609,
    "status": "In Progress",
    "flags": {
      "poorlySituated": true,
      "similarProject": false,
      "healthy": false,
      "other": true
    }
  },
  {
    "id": "P00824835LZ",
    "name": "Construction of Slope Protection Structure along Nayom River, Sta.006+922.2 - Sta. 007+559.2, Maya, lnfanta, Pangasinan",
    "year": 2024,
    "region": "Region I",
    "contractor": "IGWT-JAV CONSTRUCTION & DEVELOPMENT CORPORATION",
    "budget": 96500000.0,
    "lat": 15.810125,
    "lng": 119.933349,
    "status": "In Progress",
    "flags": {
      "poorlySituated": false,
      "similarProject": false,
      "healthy": false,
      "other": false
    }
  },
  {
    "id": "P00843180LZ",
    "name": "Construction of Bank Slope Protection along Nayom River, Sta. 007+559.2 - Sta. 008+159.2, Barangay Maya, Infanta, Pangasinan",
    "year": 2024,
    "region": "Region I",
    "contractor": "ANORE CONSTRUCTION",
    "budget": 96500000.0,
    "lat": 15.81281,
    "lng": 119.938083,
    "status": "In Progress",
    "flags": {
      "poorlySituated": false,
      "similarProject": false,
      "healthy": false,
      "other": false
    }
  },
  {
    "id": "P00726364LZ",
    "name": "Construction of Flood Mitigation Structure along Balingcaguing River (Poblacion Section), Sta. 027 + 420 - Sta. 028 + 200, Barangay Poblacion, Mabini, Pangasinan",
    "year": 2023,
    "region": "Region I",
    "contractor": "CHIARA2300 INCORPORATED / EJR BUILDERS & CONSTRUCTION SUPPLY",
    "budget": 53075000.0,
    "lat": 16.068056,
    "lng": 119.940066,
    "status": "Proposed",
    "flags": {
      "poorlySituated": false,
      "similarProject": false,
      "healthy": false,
      "other": false
    }
  },
  {
    "id": "P00821105LZ",
    "name": "Construction of Flood Mitigation Structure along Balingcaguing River (Poblacion Section), Sta. 027+880 - Sta. 028+203, Barangay Poblacion, Mabini, Pangasinan",
    "year": 2024,
    "region": "Region I",
    "contractor": "BERSON'S CONSTRUCTION & TRADING",
    "budget": 72687660.0,
    "lat": 16.058989,
    "lng": 119.94275,
    "status": "Proposed",
    "flags": {
      "poorlySituated": false,
      "similarProject": false,
      "healthy": true,
      "other": false
    }
  },
  {
    "id": "P00820716LZ",
    "name": "Construction of Flood Mitigation Facilities, Alaminos River (Palamis Section), Sta. 016+340 - Sta. 016+584, Barangay Palamis, Alaminos City, Pangasinan",
    "year": 2024,
    "region": "Region I",
    "contractor": "CDC CONSTRUCTION & SUPPLIES",
    "budget": 49000000.0,
    "lat": 16.140739,
    "lng": 119.947081,
    "status": "Proposed",
    "flags": {
      "poorlySituated": false,
      "similarProject": false,
      "healthy": true,
      "other": true
    }
  },
  {
    "id": "P00727154LZ",
    "name": "Construction of Marangla River Flood Control Structure, Package 1, Iba, Zambales",
    "year": 2023,
    "region": "Region III",
    "contractor": "E.R. DELA CRUZ CONSTRUCTION & SUPPLY",
    "budget": 48999487.57,
    "lat": 15.38565,
    "lng": 119.961637,
    "status": "Completed",
    "flags": {
      "poorlySituated": true,
      "similarProject": false,
      "healthy": true,
      "other": false
    }
  },
  {
    "id": "P00630935LZ",
    "name": "Construction of Slope Protection along Olongapo-Bugallon Road, Pangolingan Section (Phase 3), Palauig, Zambales",
    "year": 2022,
    "region": "Region III",
    "contractor": "STO. CRISTO CONSTRUCTION & TRADING INC. (FOR: STO. CRISTO CONSTRUCTION & TRADING)",
    "budget": 96494951.88,
    "lat": 15.475036,
    "lng": 119.961721,
    "status": "In Progress",
    "flags": {
      "poorlySituated": false,
      "similarProject": false,
      "healthy": false,
      "other": false
    }
  },
  {
    "id": "P00630936LZ",
    "name": "Construction of Slope Protection along Olongapo-Bugallon Road, Salaza Section (Phase 3), Palauig, Zambales",
    "year": 2022,
    "region": "Region III",
    "contractor": "STO. CRISTO CONSTRUCTION & TRADING INC. (FOR: STO. CRISTO CONSTRUCTION & TRADING)",
    "budget": 96499280.08,
    "lat": 15.470612,
    "lng": 119.963464,
    "status": "In Progress",
    "flags": {
      "poorlySituated": false,
      "similarProject": true,
      "healthy": true,
      "other": true
    }
  },
  {
    "id": "P00630937LZ",
    "name": "Construction of Slope Protection along Olongapo-Bugallon Road, Salaza Section (Phase 4), Palauig, Zambales",
    "year": 2022,
    "region": "Region III",
    "contractor": "STO. CRISTO CONSTRUCTION & TRADING INC. (FOR: STO. CRISTO CONSTRUCTION & TRADING)",
    "budget": 96494369.21,
    "lat": 15.47062,
    "lng": 119.963464,
    "status": "Proposed",
    "flags": {
      "poorlySituated": false,
      "similarProject": true,
      "healthy": false,
      "other": false
    }
  },
  {
    "id": "P00526066LZ",
    "name": "Construction/Rehabilitation/Improvement of Slope Protection along Olongapo - Bugallon Road, Pangolingan Section (Phase 2), Palauig, Zambales",
    "year": 2021,
    "region": "Region III",
    "contractor": "STO. CRISTO CONSTRUCTION & TRADING INC. (FOR: STO. CRISTO CONSTRUCTION & TRADING)",
    "budget": 48999266.55,
    "lat": 15.469899,
    "lng": 119.963824,
    "status": "In Progress",
    "flags": {
      "poorlySituated": false,
      "similarProject": true,
      "healthy": true,
      "other": false
    }
  },
  {
    "id": "P00824714LZ",
    "name": "Construction of Guisguis Flood Control at Nayum River, Brgy. Guisguis, Sta. Cruz, Zambales",
    "year": 2024,
    "region": "Region III",
    "contractor": "E.R. DELA CRUZ CONSTRUCTION & SUPPLY",
    "budget": 48249028.28,
    "lat": 15.806961,
    "lng": 119.967118,
    "status": "Proposed",
    "flags": {
      "poorlySituated": true,
      "similarProject": false,
      "healthy": false,
      "other": false
    }
  },
  {
    "id": "P00824799LZ",
    "name": "Construction of Flood Control Mitigation Structure along Alaminos River, Sta. 009+886 - Sta. 010+425, Barangay Jose, Alaminos City, Pangasinan",
    "year": 2024,
    "region": "Region I",
    "contractor": "ANORE CONSTRUCTION",
    "budget": 96500000.0,
    "lat": 16.170863,
    "lng": 119.968266,
    "status": "In Progress",
    "flags": {
      "poorlySituated": true,
      "similarProject": true,
      "healthy": true,
      "other": true
    }
  },
  {
    "id": "P00820121LZ",
    "name": "Construction of Flood Mitigation Structure along Alaminos River , Sta. 009+772.9 - Sta. 010+172.9, Barangay Cayucay, Alaminos City, Pangasinan",
    "year": 2024,
    "region": "Region I",
    "contractor": "JONIK TRADING & CONSTRUCTION / ALCEL CONSTRUCTION",
    "budget": 96500000.0,
    "lat": 16.17243,
    "lng": 119.968294,
    "status": "In Progress",
    "flags": {
      "poorlySituated": false,
      "similarProject": false,
      "healthy": true,
      "other": true
    }
  },
  {
    "id": "P00941153LZ",
    "name": "Rehabilitation of Flood Mitigation Structure, Barangay Telbang, Alaminos City, Pangasinan",
    "year": 2025,
    "region": "Region I",
    "contractor": "GED CONSTRUCTION",
    "budget": 4950000.0,
    "lat": 16.0968465671925,
    "lng": 119.969155179269,
    "status": "In Progress",
    "flags": {
      "poorlySituated": false,
      "similarProject": true,
      "healthy": false,
      "other": true
    }
  },
  {
    "id": "P00824798LZ",
    "name": "Construction of Flood Control Mitigation Structure along Alaminos River, Sta. 009+347 - Sta. 009+886, Barangay Jose, Alaminos City, Pangasinan",
    "year": 2024,
    "region": "Region I",
    "contractor": "ANORE CONSTRUCTION",
    "budget": 96500000.0,
    "lat": 16.173912,
    "lng": 119.970262,
    "status": "In Progress",
    "flags": {
      "poorlySituated": true,
      "similarProject": true,
      "healthy": false,
      "other": false
    }
  },
  {
    "id": "P00620792LZ",
    "name": "Construction of Flood Mitigation Structure along Alaminos River (Palamis Section) Sta.015+259 - Sta.015+979, Brgy. Palamis, Alaminos City, Pangasinan",
    "year": 2022,
    "region": "Region I",
    "contractor": "JASA GD 2000 CONSTRUCTION CORPORATION (FORMERLY:JASA BUILDER'S) / JONIK TRADING & CONSTRUCTION",
    "budget": 66585000.0,
    "lat": 16.142784,
    "lng": 119.971094,
    "status": "Completed",
    "flags": {
      "poorlySituated": true,
      "similarProject": false,
      "healthy": false,
      "other": false
    }
  },
  {
    "id": "P00823305LZ",
    "name": "Construction of Slope Protection Structure along Alaminos River, Sta.009+372.9 - Sta. 009+772.9, Cayucay, Alaminos City, Pangasinan",
    "year": 2024,
    "region": "Region I",
    "contractor": "IGWT-JAV CONSTRUCTION & DEVELOPMENT CORPORATION",
    "budget": 96500000.0,
    "lat": 16.17346,
    "lng": 119.971324,
    "status": "In Progress",
    "flags": {
      "poorlySituated": true,
      "similarProject": false,
      "healthy": false,
      "other": true
    }
  },
  {
    "id": "P00726332LZ",
    "name": "Construction of Flood Mitigation Structure along Alaminos River, Sta. 010+172.9 - Sta. 010+702.8, Barangay Poblacion to Cayucay, Alaminos City, Pangasinan",
    "year": 2023,
    "region": "Region I",
    "contractor": "JONIK TRADING & CONSTRUCTION / ALCEL CONSTRUCTION",
    "budget": 77200000.0,
    "lat": 16.170454,
    "lng": 119.971464,
    "status": "In Progress",
    "flags": {
      "poorlySituated": false,
      "similarProject": false,
      "healthy": false,
      "other": true
    }
  },
  {
    "id": "P00620794LZ",
    "name": "Construction of Flood Mitigation Structure along Alaminos River (Pogo Section) Sta.010+362 - Sta.011+082, Brgy. Pogo, Alaminos City, Pangasinan",
    "year": 2022,
    "region": "Region I",
    "contractor": "CHIARA2300 INCORPORATED / BERSON'S CONSTRUCTION & TRADING",
    "budget": 66585000.0,
    "lat": 16.167279,
    "lng": 119.971992,
    "status": "Proposed",
    "flags": {
      "poorlySituated": false,
      "similarProject": false,
      "healthy": false,
      "other": true
    }
  },
  {
    "id": "P00620793LZ",
    "name": "Construction of Flood Mitigation Structure along Alaminos River (Poblacion Section) Sta.011+058 - Sta.011+778, Brgy. Poblacion, Alaminos City, Pangasinan",
    "year": 2022,
    "region": "Region I",
    "contractor": "CHIARA2300 INCORPORATED / EJR BUILDERS & CONSTRUCTION SUPPLY",
    "budget": 66971000.0,
    "lat": 16.16733,
    "lng": 119.972413,
    "status": "Completed",
    "flags": {
      "poorlySituated": true,
      "similarProject": true,
      "healthy": true,
      "other": true
    }
  },
  {
    "id": "P00820120LZ",
    "name": "Construction of Flood Mitigation Structure along Alaminos River (Pogo Section), Sta. 010+525 - Sta. 010+925, Barangay Pogo, Alaminos City, Pangasinan",
    "year": 2024,
    "region": "Region I",
    "contractor": "CHIARA2300 INCORPORATED / EJR BUILDERS & CONSTRUCTION SUPPLY",
    "budget": 96500000.0,
    "lat": 16.169862,
    "lng": 119.9734,
    "status": "Completed",
    "flags": {
      "poorlySituated": true,
      "similarProject": true,
      "healthy": false,
      "other": false
    }
  },
  {
    "id": "P00726361LZ",
    "name": "Construction of Flood Mitigation Structure along Alaminos River (Pogo Section), Sta. 009 + 912 - Sta. 010 + 692, Barangay Pogo, Alaminos City, Pangasinan",
    "year": 2023,
    "region": "Region I",
    "contractor": "CDC CONSTRUCTION & SUPPLIES",
    "budget": 72375000.0,
    "lat": 16.167831,
    "lng": 119.975323,
    "status": "Proposed",
    "flags": {
      "poorlySituated": false,
      "similarProject": true,
      "healthy": false,
      "other": false
    }
  },
  {
    "id": "P00726362LZ",
    "name": "Construction of Flood Mitigation Structure along Alaminos River (Poblacion Section), Sta. 010 + 621 - Sta. 011 + 401, Barangay Poblacion, Alaminos City, Pangasinan",
    "year": 2023,
    "region": "Region I",
    "contractor": "CHIARA2300 INCORPORATED / BERSON'S CONSTRUCTION & TRADING",
    "budget": 72375000.0,
    "lat": 16.166815,
    "lng": 119.975441,
    "status": "Completed",
    "flags": {
      "poorlySituated": true,
      "similarProject": false,
      "healthy": false,
      "other": false
    }
  },
  {
    "id": "P00620954LZ",
    "name": "Construction of Flood Mitigation Structure along Alaminos River, Palamis Section, Sta. 015+979 - Sta. 016+495, Alaminos, Pangasinan",
    "year": 2022,
    "region": "Region I",
    "contractor": "JONIK TRADING & CONSTRUCTION / ALCEL CONSTRUCTION",
    "budget": 49000000.0,
    "lat": 16.138594,
    "lng": 119.975694,
    "status": "In Progress",
    "flags": {
      "poorlySituated": true,
      "similarProject": true,
      "healthy": false,
      "other": true
    }
  },
  {
    "id": "P00824797LZ",
    "name": "Construction of Bank Slope Protection along Alaminos River, Sta. 008+572.9 - Sta. 008+972.9, Barangay Cayucay, Alaminos City, Pangasinan",
    "year": 2024,
    "region": "Region I",
    "contractor": "ANORE CONSTRUCTION",
    "budget": 96500000.0,
    "lat": 16.177186,
    "lng": 119.976198,
    "status": "Completed",
    "flags": {
      "poorlySituated": false,
      "similarProject": true,
      "healthy": true,
      "other": false
    }
  },
  {
    "id": "P00742162LZ",
    "name": "Construction of Slope Protection at Pinagrealan, Upstream, Candelaria, Zambales (Phase 1)",
    "year": 2023,
    "region": "Region III",
    "contractor": "DMLC BUILDERS",
    "budget": 98999412.33,
    "lat": 15.586431,
    "lng": 119.979884,
    "status": "Proposed",
    "flags": {
      "poorlySituated": false,
      "similarProject": false,
      "healthy": true,
      "other": false
    }
  },
  {
    "id": "P00742147LZ",
    "name": "Construction of Slope Protection at Pinagrealan, Upstream, Candelaria, Zambales (Phase 2)",
    "year": 2023,
    "region": "Region III",
    "contractor": "DMLC BUILDERS",
    "budget": 98999606.49,
    "lat": 15.586438,
    "lng": 119.979884,
    "status": "Proposed",
    "flags": {
      "poorlySituated": false,
      "similarProject": false,
      "healthy": true,
      "other": true
    }
  },
  {
    "id": "P00824715LZ",
    "name": "Construction of Guinabon Flood Control at Nayum River, Brgy. Guinabon, Sta. Cruz, Zambales",
    "year": 2024,
    "region": "Region III",
    "contractor": "E.R. DELA CRUZ CONSTRUCTION & SUPPLY",
    "budget": 48248273.33,
    "lat": 15.809271,
    "lng": 119.984052,
    "status": "Completed",
    "flags": {
      "poorlySituated": true,
      "similarProject": true,
      "healthy": false,
      "other": false
    }
  },
  {
    "id": "P00742148LZ",
    "name": "Construction of Slope Protection at Pinagrealan, Upstream, Candelaria, Zambales (Phase 3)",
    "year": 2023,
    "region": "Region III",
    "contractor": "JTC CRUZ CONSTRUCTION CO., INC.",
    "budget": 98999633.54,
    "lat": 15.594575,
    "lng": 119.988579,
    "status": "In Progress",
    "flags": {
      "poorlySituated": true,
      "similarProject": false,
      "healthy": false,
      "other": false
    }
  },
  {
    "id": "P00742149LZ",
    "name": "Construction of Slope Protection at Pinagrealan, Upstream, Candelaria, Zambales (Phase 4)",
    "year": 2023,
    "region": "Region III",
    "contractor": "JTC CRUZ CONSTRUCTION CO., INC.",
    "budget": 98999994.92,
    "lat": 15.594505,
    "lng": 119.990359,
    "status": "In Progress",
    "flags": {
      "poorlySituated": false,
      "similarProject": true,
      "healthy": false,
      "other": false
    }
  },
  {
    "id": "P00742381LZ",
    "name": "Construction of Slope Protection at Lawis River Upstream, Candelaria, Zambales (Phase 2)",
    "year": 2023,
    "region": "Region III",
    "contractor": "JTC CRUZ CONSTRUCTION CO., INC.",
    "budget": 98999766.65,
    "lat": 15.593231,
    "lng": 119.993756,
    "status": "In Progress",
    "flags": {
      "poorlySituated": true,
      "similarProject": true,
      "healthy": false,
      "other": true
    }
  },
  {
    "id": "P00620187LZ",
    "name": "Construction of Slope Protection/Sea Wall, Brgy. Bangan, Botolan, Zambales",
    "year": 2022,
    "region": "Region III",
    "contractor": "HIGH STRENGTH DEV. CORPORATION",
    "budget": 72261600.37,
    "lat": 15.275352,
    "lng": 120.007582,
    "status": "Proposed",
    "flags": {
      "poorlySituated": true,
      "similarProject": true,
      "healthy": true,
      "other": true
    }
  },
  {
    "id": "P00640537LZ",
    "name": "Construction of Flood Mitigation Structure,Tambak River (Upstream) Phase III, Iba, Zambales",
    "year": 2022,
    "region": "Region III",
    "contractor": "CDC CONSTRUCTION & SUPPLIES",
    "budget": 37230435.15,
    "lat": 15.332465,
    "lng": 120.008196,
    "status": "Proposed",
    "flags": {
      "poorlySituated": false,
      "similarProject": false,
      "healthy": false,
      "other": false
    }
  },
  {
    "id": "P00640538LZ",
    "name": "Construction of Flood Mitigation Structure,Tambak River (Upstream) Phase IV, Iba, Zambales",
    "year": 2022,
    "region": "Region III",
    "contractor": "ORANI CONSTRUCTION AND SUPPLY CORPORATION (FORMERLY:ORANI BUILDERS & SUPPLY)",
    "budget": 37235289.06,
    "lat": 15.334361,
    "lng": 120.008643,
    "status": "Completed",
    "flags": {
      "poorlySituated": false,
      "similarProject": true,
      "healthy": false,
      "other": false
    }
  },
  {
    "id": "P00820713LZ",
    "name": "Construction of Flood Mitigation Facilities along Alaminos River (Barangay Cabatuan - Victoria Section), Sta. 024+385 - Sta. 024+629, Alaminos City, Pangasinan",
    "year": 2024,
    "region": "Region I",
    "contractor": "ALCEL CONSTRUCTION",
    "budget": 49000000.0,
    "lat": 16.115065,
    "lng": 120.008678,
    "status": "In Progress",
    "flags": {
      "poorlySituated": true,
      "similarProject": true,
      "healthy": true,
      "other": false
    }
  },
  {
    "id": "P00844770LZ",
    "name": "Construction of Flood Control Structure along Bancal-San Isidro-Mambog River (Totun Lanum) Phase 3, Sitio Tambak, (North Side), Barangay Palanginan, Iba, Zambales",
    "year": 2024,
    "region": "Region III",
    "contractor": "RAIK CONSTRUCTION AND DEVELOPMENT CORPORATION (FORMERLY: RAIK CONSTRUCTION AND SUPPLY)",
    "budget": 48249885.77,
    "lat": 15.319846,
    "lng": 120.008689,
    "status": "In Progress",
    "flags": {
      "poorlySituated": false,
      "similarProject": false,
      "healthy": true,
      "other": false
    }
  },
  {
    "id": "P00843215LZ",
    "name": "Construction of Flood Control Structure, Brgy. Lucap, Alaminos City, Pangasinan (Package II)",
    "year": 2024,
    "region": "Region I",
    "contractor": "ORIENTAL SALES CENTER AND CONTRACTOR / ALCEL CONSTRUCTION",
    "budget": 96500000.0,
    "lat": 16.182669,
    "lng": 120.008813,
    "status": "Completed",
    "flags": {
      "poorlySituated": true,
      "similarProject": false,
      "healthy": false,
      "other": true
    }
  },
  {
    "id": "P00640536LZ",
    "name": "Construction of Flood Mitigation Structure,Tambak River (Upstream) Phase II, Iba, Zambales",
    "year": 2022,
    "region": "Region III",
    "contractor": "CDC CONSTRUCTION & SUPPLIES",
    "budget": 38903735.02,
    "lat": 15.330417,
    "lng": 120.009491,
    "status": "Completed",
    "flags": {
      "poorlySituated": true,
      "similarProject": false,
      "healthy": false,
      "other": false
    }
  },
  {
    "id": "P00640540LZ",
    "name": "Construction of Slope Protection/Flood Control Structure along Tambak River (Upstream), Phase 6, Iba, Zambales",
    "year": 2022,
    "region": "Region III",
    "contractor": "CDC CONSTRUCTION & SUPPLIES",
    "budget": 48996495.64,
    "lat": 15.333914,
    "lng": 120.010577,
    "status": "Completed",
    "flags": {
      "poorlySituated": true,
      "similarProject": false,
      "healthy": false,
      "other": false
    }
  },
  {
    "id": "P00640539LZ",
    "name": "Construction of Flood Mitigation Structure,Tambak River (Upstream), Iba, Zambales",
    "year": 2022,
    "region": "Region III",
    "contractor": "HIGH STRENGTH DEV. CORPORATION",
    "budget": 38903704.46,
    "lat": 15.327896,
    "lng": 120.011307,
    "status": "In Progress",
    "flags": {
      "poorlySituated": false,
      "similarProject": false,
      "healthy": true,
      "other": false
    }
  },
  {
    "id": "P00725703LZ",
    "name": "Construction of Flood Control Structure at Bucao River North Approach Downstream, Botolan, Zambales",
    "year": 2023,
    "region": "Region III",
    "contractor": "NICLEDON CONSTRUCTION / GRACE CONSTRUCTION CORPORATION",
    "budget": 96499311.36,
    "lat": 15.269167,
    "lng": 120.015853,
    "status": "Proposed",
    "flags": {
      "poorlySituated": false,
      "similarProject": false,
      "healthy": false,
      "other": false
    }
  },
  {
    "id": "P00740643LZ",
    "name": "Construction of Flood Control along Batonlapoc Creek, Batonlapoc, Botolan, Zambales",
    "year": 2023,
    "region": "Region III",
    "contractor": "MARKBILT CONSTRUCTION TRADING & DEVELOPMENT CORP. (FORMERLY:MARKBILT CONSTRUCTION)",
    "budget": 29399608.39,
    "lat": 15.290068,
    "lng": 120.028599,
    "status": "Proposed",
    "flags": {
      "poorlySituated": true,
      "similarProject": false,
      "healthy": false,
      "other": true
    }
  },
  {
    "id": "P00726748LZ",
    "name": "Construction of Flood Control Structure at Bucao River North Approach Downstream Phase 2, Botolan, Zambales",
    "year": 2023,
    "region": "Region III",
    "contractor": "R.A. PAHATI CONST. & SUPPLY, INC.",
    "budget": 48999304.04,
    "lat": 15.2656,
    "lng": 120.03,
    "status": "In Progress",
    "flags": {
      "poorlySituated": true,
      "similarProject": true,
      "healthy": true,
      "other": true
    }
  },
  {
    "id": "P00726837LZ",
    "name": "Construction of Riverbank Protection along Sinucalan River, Barangay Bacayao Norte, Dagupan City, Pangasinan",
    "year": 2023,
    "region": "Region I",
    "contractor": "BET CONSTRUCTION & SUPPLY",
    "budget": 106150000.0,
    "lat": 16.034463,
    "lng": 120.034463,
    "status": "In Progress",
    "flags": {
      "poorlySituated": true,
      "similarProject": false,
      "healthy": true,
      "other": true
    }
  },
  {
    "id": "P00620555LZ",
    "name": "Rehabilitation of Flood Control Structure at Bucao River, Upstream, Sta. 0 + 500 - Sta. 0 + 950, Botolan, Zambales",
    "year": 2022,
    "region": "Region III",
    "contractor": "ORANI CONSTRUCTION AND SUPPLY CORPORATION (FORMERLY:ORANI BUILDERS & SUPPLY)",
    "budget": 48999306.81,
    "lat": 15.269232,
    "lng": 120.040069,
    "status": "In Progress",
    "flags": {
      "poorlySituated": false,
      "similarProject": false,
      "healthy": true,
      "other": false
    }
  },
  {
    "id": "P00620523LZ",
    "name": "Construction of Flood Control Structure along Bulo River, San Miguel, Bulacan",
    "year": 2022,
    "region": "Region III",
    "contractor": "MRRM TRADING & CONSTRUCTION",
    "budget": 46059437.96,
    "lat": 15.24101,
    "lng": 120.04711,
    "status": "Completed",
    "flags": {
      "poorlySituated": true,
      "similarProject": true,
      "healthy": true,
      "other": true
    }
  },
  {
    "id": "P00742377LZ",
    "name": "Construction of Slope Protection Structure (Upstream L/S) along the highway going to Olongapo, Barangay Banuanbayo, Cabangan, Zambales",
    "year": 2023,
    "region": "Region III",
    "contractor": "KAEE CONSTRUCTION SERVICES",
    "budget": 5939285.37,
    "lat": 15.156488,
    "lng": 120.055051,
    "status": "In Progress",
    "flags": {
      "poorlySituated": false,
      "similarProject": true,
      "healthy": false,
      "other": false
    }
  },
  {
    "id": "P00561720LZ",
    "name": "Construction of Slope Protection/Flood Control, Brgy. Poonbato, Municipality of Botolan, Province of Zambales",
    "year": 2021,
    "region": "Region III",
    "contractor": "CDC CONSTRUCTION & SUPPLIES",
    "budget": 24499951.53,
    "lat": 15.313149,
    "lng": 120.056073,
    "status": "In Progress",
    "flags": {
      "poorlySituated": true,
      "similarProject": false,
      "healthy": false,
      "other": true
    }
  },
  {
    "id": "P00561574LZ",
    "name": "Construction of River Protection along Pula River, Paluan, Occidental Mindoro",
    "year": 2021,
    "region": "Region IV-B",
    "contractor": "NEW MINDORENOS LUMBER, HARDWARE AND GEN MERCHANDISE",
    "budget": 19600000.0,
    "lat": 13.416389,
    "lng": 120.40111,
    "status": "In Progress",
    "flags": {
      "poorlySituated": true,
      "similarProject": true,
      "healthy": false,
      "other": false
    }
  },
  {
    "id": "P00742373LZ",
    "name": "Construction of Slope Protection with Steel Sheet Pile Foundation and Road Component Along Camiling River Left Bank, Anoling 3rd to Pao 1st Section, Camiling, Tarlac (Package G)",
    "year": 2023,
    "region": "Region III",
    "contractor": "A.C. SOLIVEN CONSTRUCTION & GENERAL MERCHANDISE",
    "budget": 49500000.0,
    "lat": 15.655183,
    "lng": 120.401175,
    "status": "In Progress",
    "flags": {
      "poorlySituated": true,
      "similarProject": false,
      "healthy": true,
      "other": true
    }
  },
  {
    "id": "P00630929LZ",
    "name": "Construction of Slope Protection, Barangays Embarcadero, Macayug, Inlambo, Navaluan, Osiem and Landas, Mangaldan, Pangasinan",
    "year": 2022,
    "region": "Region I",
    "contractor": "J.G. GARCIA CONSTRUCTION & SUPPLY (FOR: J.G. GARCIA CONST.)",
    "budget": 57900000.0,
    "lat": 16.065,
    "lng": 120.4012,
    "status": "Proposed",
    "flags": {
      "poorlySituated": false,
      "similarProject": true,
      "healthy": false,
      "other": true
    }
  },
  {
    "id": "P00742271LZ",
    "name": "Construction of Flood Control Structure at Brgy. Antonino, Balaoan, La Union",
    "year": 2023,
    "region": "Region I",
    "contractor": "PAGTAENGAN BUILDERS AND CONCRETE PRODUCTS",
    "budget": 9799975.97,
    "lat": 16.818711,
    "lng": 120.401534,
    "status": "In Progress",
    "flags": {
      "poorlySituated": false,
      "similarProject": false,
      "healthy": true,
      "other": false
    }
  },
  {
    "id": "P00821475LZ",
    "name": "Construction of Flood Control Structure along Aringay River Basin, Tubao, La Union (Package 8)",
    "year": 2024,
    "region": "Region I",
    "contractor": "RODEKOM GENERAL CONSTRUCTION AND ENTERPRISE",
    "budget": 48999995.52,
    "lat": 16.367985,
    "lng": 120.401734,
    "status": "Proposed",
    "flags": {
      "poorlySituated": true,
      "similarProject": true,
      "healthy": false,
      "other": true
    }
  },
  {
    "id": "P00824807LZ",
    "name": "Construction of Flood Control Structure along Baroro River, Barangay Bucao, San Gabriel, La Union",
    "year": 2024,
    "region": "Region I",
    "contractor": "ST. GERRARD CONSTRUCTION GEN. CONTRACTOR & DEVELOPMENT CORP. (FORMERLY:ST. GERRARD CONSTRUCTION)",
    "budget": 154400000.0,
    "lat": 16.665165,
    "lng": 120.402042,
    "status": "Proposed",
    "flags": {
      "poorlySituated": true,
      "similarProject": false,
      "healthy": true,
      "other": false
    }
  },
  {
    "id": "P00727245LZ",
    "name": "Construction of Flood Control Structure along the Aringay River Basin, Tubao, La Union (Package 6)",
    "year": 2023,
    "region": "Region I",
    "contractor": "UNIVERSAL DE LEON CONSTRUCTION AND AGGREGATES",
    "budget": 72374997.36,
    "lat": 16.366497,
    "lng": 120.402162,
    "status": "Completed",
    "flags": {
      "poorlySituated": false,
      "similarProject": false,
      "healthy": false,
      "other": true
    }
  },
  {
    "id": "P00727243LZ",
    "name": "Construction of Flood Control Structure along the Aringay River Basin, Tubao, La Union (Package 4)",
    "year": 2023,
    "region": "Region I",
    "contractor": "UNIVERSAL DE LEON CONSTRUCTION AND AGGREGATES",
    "budget": 72374995.83,
    "lat": 16.370192,
    "lng": 120.402272,
    "status": "In Progress",
    "flags": {
      "poorlySituated": true,
      "similarProject": true,
      "healthy": false,
      "other": false
    }
  },
  {
    "id": "P00727244LZ",
    "name": "Construction of Flood Control Structure along the Aringay River Basin, Tubao, La Union (Package 5)",
    "year": 2023,
    "region": "Region I",
    "contractor": "UNIVERSAL DE LEON CONSTRUCTION AND AGGREGATES",
    "budget": 72374992.2,
    "lat": 16.370253,
    "lng": 120.402303,
    "status": "In Progress",
    "flags": {
      "poorlySituated": true,
      "similarProject": true,
      "healthy": true,
      "other": false
    }
  },
  {
    "id": "P00839554LZ",
    "name": "Construction of Drainage System at Barangay Bari, Mangaldan, Pangasinan",
    "year": 2024,
    "region": "Region I",
    "contractor": "MIGHTYWAY CONSTRUCTION AND SUPPLY",
    "budget": 4950000.0,
    "lat": 16.059806,
    "lng": 120.403223,
    "status": "Completed",
    "flags": {
      "poorlySituated": true,
      "similarProject": true,
      "healthy": true,
      "other": true
    }
  },
  {
    "id": "P00621287LZ",
    "name": "Construction of Camiling-Agno River Floodway, Tarlac, Phase 4",
    "year": 2022,
    "region": "Region III",
    "contractor": "BMK CONSTRUCTION CORPORATION (FORMERLY B.M.K. CONSTRUCTION) / ROYAL CROWN MONARCH CONSTRUCTION & SUPPLIES CORP.",
    "budget": 289499110.9,
    "lat": 15.740944,
    "lng": 120.403308,
    "status": "Completed",
    "flags": {
      "poorlySituated": true,
      "similarProject": true,
      "healthy": true,
      "other": false
    }
  },
  {
    "id": "P00820103LZ",
    "name": "Construction of Flood Control Mitigation Structure along Barangay Bumbuneg-Baroro, San Gabriel, La Union",
    "year": 2024,
    "region": "Region I",
    "contractor": "MY BUILDERS AND CONSTRUCTION",
    "budget": 84262347.69,
    "lat": 16.6716653,
    "lng": 120.4033116,
    "status": "Completed",
    "flags": {
      "poorlySituated": false,
      "similarProject": false,
      "healthy": false,
      "other": false
    }
  },
  {
    "id": "P00631073LZ",
    "name": "Construction of Flood Control Mitigation Structures Along Bauang River Basin, (Brgy. Nagrebcan, Bauang), (Brgy. Mamat-Ing Sur, Naguilian), La Union",
    "year": 2022,
    "region": "Region I",
    "contractor": "E.E. MADAYAG CONSTRUCTION",
    "budget": 7839996.91,
    "lat": 16.577,
    "lng": 120.4036,
    "status": "In Progress",
    "flags": {
      "poorlySituated": false,
      "similarProject": true,
      "healthy": false,
      "other": false
    }
  },
  {
    "id": "P00821474LZ",
    "name": "Construction of Flood Control Structure along Aringay River Basin, Barangay Sta. Teresa, Tubao, La Union",
    "year": 2024,
    "region": "Region I",
    "contractor": "VILLAR GENERAL CONSTRUCTION AND SUPPLIES",
    "budget": 48999991.25,
    "lat": 16.365157,
    "lng": 120.403667,
    "status": "Completed",
    "flags": {
      "poorlySituated": false,
      "similarProject": false,
      "healthy": true,
      "other": false
    }
  },
  {
    "id": "P00742276LZ",
    "name": "Construction of Flood Control System Aringay River, Sta. Teresa, Tubao, La Union",
    "year": 2023,
    "region": "Region I",
    "contractor": "E.E. MADAYAG CONSTRUCTION",
    "budget": 29399982.27,
    "lat": 16.38129444,
    "lng": 120.4046583,
    "status": "Completed",
    "flags": {
      "poorlySituated": false,
      "similarProject": false,
      "healthy": true,
      "other": true
    }
  },
  {
    "id": "P00727333LZ",
    "name": "Construction of Flood Control Structure along the Aringay River Basin, Tubao, La Union (Package 7)",
    "year": 2023,
    "region": "Region I",
    "contractor": "ROCK-WBL CONSTRUCTION CORP. (FOR: ROCK-WBL CONSTRUCTION TRADING & SERVICES)",
    "budget": 24499999.44,
    "lat": 16.380569,
    "lng": 120.404675,
    "status": "In Progress",
    "flags": {
      "poorlySituated": false,
      "similarProject": true,
      "healthy": false,
      "other": false
    }
  },
  {
    "id": "P00727242LZ",
    "name": "Construction of Flood Control Structure along the Aringay River Basin, Tubao, La Union (Package 3)",
    "year": 2023,
    "region": "Region I",
    "contractor": "UNIVERSAL DE LEON CONSTRUCTION AND AGGREGATES",
    "budget": 72374993.61,
    "lat": 16.372723,
    "lng": 120.40487,
    "status": "Proposed",
    "flags": {
      "poorlySituated": false,
      "similarProject": true,
      "healthy": false,
      "other": false
    }
  },
  {
    "id": "P00727240LZ",
    "name": "Construction of Flood Control Structure along the Aringay River Basin, Tubao, La Union (Package 1)",
    "year": 2023,
    "region": "Region I",
    "contractor": "ROCK-WBL CONSTRUCTION CORP. (FOR: ROCK-WBL CONSTRUCTION TRADING & SERVICES)",
    "budget": 72374996.18,
    "lat": 16.278859,
    "lng": 120.404971,
    "status": "Completed",
    "flags": {
      "poorlySituated": true,
      "similarProject": false,
      "healthy": true,
      "other": false
    }
  },
  {
    "id": "P00845902LZ",
    "name": "Construction of Flood Control Structure along Aringay River Basin, Brgy. Leones East, Tubao, La Union",
    "year": 2024,
    "region": "Region I",
    "contractor": "VILLAR GENERAL CONSTRUCTION AND SUPPLIES",
    "budget": 29699998.74,
    "lat": 16.363388,
    "lng": 120.405002,
    "status": "Proposed",
    "flags": {
      "poorlySituated": false,
      "similarProject": true,
      "healthy": false,
      "other": true
    }
  },
  {
    "id": "P00839551LZ",
    "name": "Construction of Flood Control Structure, Aringay River Basin, Barangay Leones East, Tubao, La Union",
    "year": 2024,
    "region": "Region I",
    "contractor": "VILLAR GENERAL CONSTRUCTION AND SUPPLIES",
    "budget": 14850000.0,
    "lat": 16.362418,
    "lng": 120.405027,
    "status": "Completed",
    "flags": {
      "poorlySituated": false,
      "similarProject": false,
      "healthy": false,
      "other": false
    }
  },
  {
    "id": "P00727079LZ",
    "name": "Construction of Tamurong Flood Control leading to Candon-Santiago-San Esteban Coastal Road, Barangay Tamurong, Candon City, Ilocos Sur",
    "year": 2023,
    "region": "Region I",
    "contractor": "FIRST NORTHWAY DEVELOPMENT & CONSTRUCTION CORP.",
    "budget": 39200000.0,
    "lat": 17.21407,
    "lng": 120.40523,
    "status": "Completed",
    "flags": {
      "poorlySituated": false,
      "similarProject": false,
      "healthy": true,
      "other": false
    }
  },
  {
    "id": "P00726498LZ",
    "name": "Construction of Slope Protection with Steel Sheet Pile Foundation along Camiling River (Right Bank), Baybayaoas-Telbang Section (Package R), Tarlac",
    "year": 2023,
    "region": "Region III",
    "contractor": "ROYAL CROWN MONARCH CONSTRUCTION & SUPPLIES CORP.",
    "budget": 144749610.0,
    "lat": 15.6607459,
    "lng": 120.4052808,
    "status": "In Progress",
    "flags": {
      "poorlySituated": true,
      "similarProject": false,
      "healthy": false,
      "other": false
    }
  },
  {
    "id": "P00727241LZ",
    "name": "Construction of Flood Control Structure along the Aringay River Basin, Tubao, La Union (Package 2)",
    "year": 2023,
    "region": "Region I",
    "contractor": "MG SAMIDAN CONSTRUCTION",
    "budget": 72374998.14,
    "lat": 16.376165,
    "lng": 120.405872,
    "status": "Proposed",
    "flags": {
      "poorlySituated": false,
      "similarProject": false,
      "healthy": true,
      "other": false
    }
  },
  {
    "id": "P00639316LZ",
    "name": "Construction of Slope Protection Works along Naguilian - Bagulin Road, La Union",
    "year": 2022,
    "region": "Region I",
    "contractor": "J.H. PAJARA CONSTRUCTION CORPORATION / S-ANG CONSTRUCTION & GENERAL TRADING, INC.",
    "budget": 207475000.0,
    "lat": 16.55569,
    "lng": 120.40632,
    "status": "Completed",
    "flags": {
      "poorlySituated": false,
      "similarProject": false,
      "healthy": false,
      "other": false
    }
  },
  {
    "id": "P00737427LZ",
    "name": "Construction of Slope Protection along Ingalera River, Barangay Ican, Malasiqui, Pangasinan",
    "year": 2023,
    "region": "Region I",
    "contractor": "HIGH ROCK CONSTRUCTION AND SUPPLIES INCORPORATED",
    "budget": 4950000.0,
    "lat": 15.94393,
    "lng": 120.40753,
    "status": "In Progress",
    "flags": {
      "poorlySituated": false,
      "similarProject": true,
      "healthy": false,
      "other": false
    }
  },
  {
    "id": "P00621085LZ",
    "name": "Construction of Flood Control Structure along Camiling River (Left Bank, Phase II), Poblacion D to G Section, Camiling, Tarlac",
    "year": 2022,
    "region": "Region III",
    "contractor": "ROYAL CROWN MONARCH CONSTRUCTION & SUPPLIES CORP.",
    "budget": 49000000.0,
    "lat": 15.68087,
    "lng": 120.408252,
    "status": "In Progress",
    "flags": {
      "poorlySituated": true,
      "similarProject": false,
      "healthy": false,
      "other": false
    }
  },
  {
    "id": "P00726068LZ",
    "name": "Construction of Slope Protection along Ingalera River, Barangay Ican, Malasiqui, Pangasinan (Phase III)",
    "year": 2023,
    "region": "Region I",
    "contractor": "JEUSMACK BUILDERS & CONSTRUCTION SUPPLY",
    "budget": 19600000.0,
    "lat": 15.94914,
    "lng": 120.40848,
    "status": "Completed",
    "flags": {
      "poorlySituated": false,
      "similarProject": true,
      "healthy": false,
      "other": true
    }
  },
  {
    "id": "P00726090LZ",
    "name": "Construction of Slope Protection Works along Binalbalolong Creek, Barangay Poblacion, Malasiqui, Pangasinan",
    "year": 2023,
    "region": "Region I",
    "contractor": "JEUSMACK BUILDERS & CONSTRUCTION SUPPLY",
    "budget": 19600000.0,
    "lat": 15.921896,
    "lng": 120.408675,
    "status": "Completed",
    "flags": {
      "poorlySituated": false,
      "similarProject": false,
      "healthy": false,
      "other": false
    }
  },
  {
    "id": "P00823292LZ",
    "name": "Construction of Flood Control Structure along Balili River, Barangay Ambaracao Norte, Naguilian, La Union",
    "year": 2024,
    "region": "Region I",
    "contractor": "MG SAMIDAN CONSTRUCTION",
    "budget": 115800000.0,
    "lat": 16.502485,
    "lng": 120.40975,
    "status": "Proposed",
    "flags": {
      "poorlySituated": false,
      "similarProject": false,
      "healthy": false,
      "other": true
    }
  },
  {
    "id": "P00824809LZ",
    "name": "Construction of Flood Control Structure along Baroro River, Barangay Poblacion, San Gabriel, La Union",
    "year": 2024,
    "region": "Region I",
    "contractor": "ST. GERRARD CONSTRUCTION GEN. CONTRACTOR & DEVELOPMENT CORP. (FORMERLY:ST. GERRARD CONSTRUCTION)",
    "budget": 154400000.0,
    "lat": 16.6822,
    "lng": 120.4098,
    "status": "Completed",
    "flags": {
      "poorlySituated": true,
      "similarProject": true,
      "healthy": true,
      "other": false
    }
  },
  {
    "id": "P00631271LZ",
    "name": "Construction of Slope Protection along Camiling River Right Bank, Surgui 1st Section, Surgui 1st, Camiling, Tarlac",
    "year": 2022,
    "region": "Region III",
    "contractor": "R.R. RICAFORT CONSTRUCTION AND SUPPLIES",
    "budget": 44100000.0,
    "lat": 15.68264,
    "lng": 120.410105,
    "status": "In Progress",
    "flags": {
      "poorlySituated": true,
      "similarProject": true,
      "healthy": false,
      "other": false
    }
  },
  {
    "id": "P00725712LZ",
    "name": "Construction of Flood Control Project along Colo Creek Tributary to Colo River, Dinalupihan, Bataan",
    "year": 2023,
    "region": "Region III",
    "contractor": "ORANI CONSTRUCTION AND SUPPLY CORPORATION (FORMERLY:ORANI BUILDERS & SUPPLY)",
    "budget": 48249997.25,
    "lat": 14.84710556,
    "lng": 120.4104917,
    "status": "Proposed",
    "flags": {
      "poorlySituated": false,
      "similarProject": false,
      "healthy": false,
      "other": true
    }
  },
  {
    "id": "P00631267LZ",
    "name": "Construction of Flood Control Structures Along Camiling River Left Bank Phase II-2, Poblacion D to G Section, Poblacion D to G, Camiling, Tarlac",
    "year": 2022,
    "region": "Region III",
    "contractor": "GJE BUILDERS CORPORATION (FORMERLY: GJE BUILDERS)",
    "budget": 29400000.0,
    "lat": 15.683279,
    "lng": 120.410616,
    "status": "Completed",
    "flags": {
      "poorlySituated": false,
      "similarProject": false,
      "healthy": true,
      "other": true
    }
  },
  {
    "id": "P00620549LZ",
    "name": "Construction of Drainage Outfall for Romulo Highway (Phase 2), Camiling, Tarlac",
    "year": 2022,
    "region": "Region III",
    "contractor": "CS GONZALES CONSTRUCTION AND SUPPLY",
    "budget": 19600000.0,
    "lat": 15.688302,
    "lng": 120.411119,
    "status": "In Progress",
    "flags": {
      "poorlySituated": true,
      "similarProject": true,
      "healthy": false,
      "other": false
    }
  },
  {
    "id": "P00639363LZ",
    "name": "Rehabilitation Canal System of CLBRIS (Colo RIS), Dinaluphan, Bataan",
    "year": 2022,
    "region": "Region III",
    "contractor": "TDC II PRO BUILDERS",
    "budget": 72374999.81,
    "lat": 14.845038,
    "lng": 120.411674,
    "status": "Completed",
    "flags": {
      "poorlySituated": false,
      "similarProject": true,
      "healthy": false,
      "other": true
    }
  },
  {
    "id": "P00621570LZ",
    "name": "Construction of Slope Protection Structure Along Camiling River Right Bank, Surgui 1st - Cacamilingan Sur Section (Package B), Camiling, Tarlac",
    "year": 2022,
    "region": "Region III",
    "contractor": "ROYAL CROWN MONARCH CONSTRUCTION & SUPPLIES CORP.",
    "budget": 96500000.0,
    "lat": 15.682664,
    "lng": 120.411703,
    "status": "Proposed",
    "flags": {
      "poorlySituated": true,
      "similarProject": false,
      "healthy": false,
      "other": false
    }
  },
  {
    "id": "P00621572LZ",
    "name": "Construction of Slope Protection Structure along Camiling River, Poblacion D to G Section (Package C), Camiling, Tarlac",
    "year": 2022,
    "region": "Region III",
    "contractor": "ROYAL CROWN MONARCH CONSTRUCTION & SUPPLIES CORP.",
    "budget": 96500000.0,
    "lat": 15.683264,
    "lng": 120.412382,
    "status": "Completed",
    "flags": {
      "poorlySituated": false,
      "similarProject": false,
      "healthy": true,
      "other": true
    }
  },
  {
    "id": "P00823295LZ",
    "name": "Construction of Tamurong Flood Control, Candon City, Ilocos Sur",
    "year": 2024,
    "region": "Region I",
    "contractor": "FIRST NORTHWAY DEVELOPMENT & CONSTRUCTION CORP.",
    "budget": 34300000.0,
    "lat": 17.206896,
    "lng": 120.412804,
    "status": "Completed",
    "flags": {
      "poorlySituated": false,
      "similarProject": true,
      "healthy": false,
      "other": false
    }
  },
  {
    "id": "P00525866LZ",
    "name": "Construction of Seawall, Brgy. Salomague, Cabugao, Ilocos Sur",
    "year": 2021,
    "region": "Region I",
    "contractor": "VIKING CONSTRUCTION & SUPPLIES",
    "budget": 49000000.0,
    "lat": 17.78127222,
    "lng": 120.4135,
    "status": "In Progress",
    "flags": {
      "poorlySituated": false,
      "similarProject": true,
      "healthy": false,
      "other": false
    }
  },
  {
    "id": "P00640457LZ",
    "name": "Construction of Slope Protection Structure along Camiling River, Poblacion D to G Serction (Package C), Camiling, Tarlac",
    "year": 2022,
    "region": "Region III",
    "contractor": "A.C. SOLIVEN CONSTRUCTION & GENERAL MERCHANDISE",
    "budget": 99000000.0,
    "lat": 15.682832,
    "lng": 120.414219,
    "status": "Proposed",
    "flags": {
      "poorlySituated": false,
      "similarProject": false,
      "healthy": true,
      "other": true
    }
  },
  {
    "id": "P00621571LZ",
    "name": "Construction of Slope Protection Structure Along Camiling River Right Bank, Surgui 1st - Cacamilingan Sur Section (Package C), Camiling, Tarlac",
    "year": 2022,
    "region": "Region III",
    "contractor": "ROYAL CROWN MONARCH CONSTRUCTION & SUPPLIES CORP.",
    "budget": 96500000.0,
    "lat": 15.681961,
    "lng": 120.414578,
    "status": "Proposed",
    "flags": {
      "poorlySituated": false,
      "similarProject": true,
      "healthy": true,
      "other": false
    }
  },
  {
    "id": "P00823314LZ",
    "name": "Construction of Flood Control Structure along Aringay River Basin Barangay Halog East, Tubao, La Union (Package 7)",
    "year": 2024,
    "region": "Region I",
    "contractor": "VILLAR GENERAL CONSTRUCTION AND SUPPLIES",
    "budget": 19299998.86,
    "lat": 16.356472,
    "lng": 120.414691,
    "status": "Completed",
    "flags": {
      "poorlySituated": false,
      "similarProject": false,
      "healthy": false,
      "other": false
    }
  },
  {
    "id": "P00621474LZ",
    "name": "Contruction of Slope Protection Structure with Steel Sheet Pile Foundation Along Camiling River Left Bank, Pindangan 1st - Pindangan 2nd Section (Package A), Camiling, Tarlac",
    "year": 2022,
    "region": "Region III",
    "contractor": "FLORDES CONSTRUCTION & TRADING CORP. (FORMERLY FLO",
    "budget": 96500000.0,
    "lat": 15.746609,
    "lng": 120.415041,
    "status": "In Progress",
    "flags": {
      "poorlySituated": false,
      "similarProject": true,
      "healthy": true,
      "other": false
    }
  },
  {
    "id": "P00620956LZ",
    "name": "Construction of River Bank Protection along Bued River, Brgy. Macayug, Mangaldan, Pangasinan",
    "year": 2022,
    "region": "Region I",
    "contractor": "FORTHRIGHT CONSTRUCTION",
    "budget": 24124999.81,
    "lat": 16.08131,
    "lng": 120.41543,
    "status": "Completed",
    "flags": {
      "poorlySituated": true,
      "similarProject": true,
      "healthy": true,
      "other": false
    }
  },
  {
    "id": "P00621090LZ",
    "name": "Construction of Flood Control Structure Along Camiling River Right Bank, Tambugan Section (Phase III), Camiling, Tarlac",
    "year": 2022,
    "region": "Region III",
    "contractor": "A.C. SOLIVEN CONSTRUCTION & GENERAL MERCHANDISE",
    "budget": 39200000.0,
    "lat": 15.701498,
    "lng": 120.415661,
    "status": "Proposed",
    "flags": {
      "poorlySituated": true,
      "similarProject": true,
      "healthy": false,
      "other": false
    }
  },
  {
    "id": "P00845904LZ",
    "name": "Construction of Flood Control Structure along Aringay River Basin, Brgy. Halong West, Tubao, La Union",
    "year": 2024,
    "region": "Region I",
    "contractor": "VILLAR GENERAL CONSTRUCTION AND SUPPLIES",
    "budget": 29699997.95,
    "lat": 16.348489,
    "lng": 120.415777,
    "status": "Proposed",
    "flags": {
      "poorlySituated": true,
      "similarProject": false,
      "healthy": false,
      "other": false
    }
  },
  {
    "id": "P00823291LZ",
    "name": "Construction of Flood Control Structure along Balili River, Barangay Al-Alinao Norte, Naguilian, La Union",
    "year": 2024,
    "region": "Region I",
    "contractor": "ROCK-WBL CONSTRUCTION CORP. (FOR: ROCK-WBL CONSTRUCTION TRADING & SERVICES)",
    "budget": 115800000.0,
    "lat": 16.5037,
    "lng": 120.416,
    "status": "Proposed",
    "flags": {
      "poorlySituated": true,
      "similarProject": false,
      "healthy": true,
      "other": false
    }
  },
  {
    "id": "P00621088LZ",
    "name": "Construction of Flood Control Structure Along Camiling River Left Bank (Phase II), Cayaoan Section, Cayaoan, Camiling, Tarlac",
    "year": 2022,
    "region": "Region III",
    "contractor": "GJE BUILDERS CORPORATION (FORMERLY: GJE BUILDERS)",
    "budget": 29400000.0,
    "lat": 15.693751,
    "lng": 120.416012,
    "status": "Completed",
    "flags": {
      "poorlySituated": false,
      "similarProject": true,
      "healthy": false,
      "other": false
    }
  },
  {
    "id": "P00726336LZ",
    "name": "Construction of Flood Control Structure along Aringay River, Barangay Garcia - Gonzales, Tubao, La Union",
    "year": 2023,
    "region": "Region I",
    "contractor": "RODEKOM GENERAL CONSTRUCTION AND ENTERPRISE",
    "budget": 144750000.0,
    "lat": 16.35235,
    "lng": 120.416893,
    "status": "Proposed",
    "flags": {
      "poorlySituated": true,
      "similarProject": false,
      "healthy": true,
      "other": false
    }
  },
  {
    "id": "P00727095LZ",
    "name": "Construction of Riverbank Protection, Brgy. Embarcadero, Mangaldan, Pangasinan",
    "year": 2023,
    "region": "Region I",
    "contractor": "BET CONSTRUCTION & SUPPLY",
    "budget": 26937260.0,
    "lat": 16.07655,
    "lng": 120.4173,
    "status": "Proposed",
    "flags": {
      "poorlySituated": false,
      "similarProject": false,
      "healthy": false,
      "other": true
    }
  },
  {
    "id": "P00631272LZ",
    "name": "Construction of Slope Protection along Camiling River Right Bank, Tambungan-Sawat Section, Camiling, Tarlac",
    "year": 2022,
    "region": "Region III",
    "contractor": "R.R. RICAFORT CONSTRUCTION AND SUPPLIES",
    "budget": 44100000.0,
    "lat": 15.704051,
    "lng": 120.41734,
    "status": "Proposed",
    "flags": {
      "poorlySituated": false,
      "similarProject": false,
      "healthy": false,
      "other": true
    }
  },
  {
    "id": "P00726742LZ",
    "name": "Construction of Slope Protection with Steel Sheet Pile Foundation along Camiling River, Right Bank, Surgui 1st - Cacamilingan Sur Section (Package A), Camiling, Tarlac",
    "year": 2023,
    "region": "Region III",
    "contractor": "A.C. SOLIVEN CONSTRUCTION & GENERAL MERCHANDISE",
    "budget": 49000000.0,
    "lat": 15.681861,
    "lng": 120.417442,
    "status": "In Progress",
    "flags": {
      "poorlySituated": true,
      "similarProject": true,
      "healthy": false,
      "other": false
    }
  },
  {
    "id": "P00632808LZ",
    "name": "Construction of Flood Control Structure along Colo River, Malte Section, Phase ERD-I, Hermosa, Bataan",
    "year": 2022,
    "region": "Region III",
    "contractor": "VM BUILDERS CONSTRUCTION CORPORATION",
    "budget": 14849999.96,
    "lat": 14.845001,
    "lng": 120.41769,
    "status": "In Progress",
    "flags": {
      "poorlySituated": true,
      "similarProject": false,
      "healthy": false,
      "other": false
    }
  },
  {
    "id": "P00726743LZ",
    "name": "Construction of Slope Protection with Steel Sheet Pile Foundation along Camiling River Right Bank, Cacamilingan Sur-Cacamilingan Norte Section (Package A), Camiling, Tarlac",
    "year": 2023,
    "region": "Region III",
    "contractor": "A.C. SOLIVEN CONSTRUCTION & GENERAL MERCHANDISE",
    "budget": 49000000.0,
    "lat": 15.687486,
    "lng": 120.417694,
    "status": "Proposed",
    "flags": {
      "poorlySituated": false,
      "similarProject": false,
      "healthy": true,
      "other": false
    }
  },
  {
    "id": "P00821479LZ",
    "name": "Construction of Flood Mitigation Structure along Aringay River Basin, Barangay Halog West, Tubao, La Union",
    "year": 2024,
    "region": "Region I",
    "contractor": "JABEN GENERAL CONTRACTING & ENG'G SERVICES",
    "budget": 48250000.0,
    "lat": 16.355874,
    "lng": 120.417911,
    "status": "Completed",
    "flags": {
      "poorlySituated": true,
      "similarProject": false,
      "healthy": false,
      "other": false
    }
  },
  {
    "id": "P00742314LZ",
    "name": "Construction of Flood Control Project along Colo River, Maite Section Phase CMD-1 Hermosa, Bataan",
    "year": 2023,
    "region": "Region III",
    "contractor": "M.C.J. VALENZUELA CONSTRUCTION ENTERPRISES",
    "budget": 19799999.45,
    "lat": 14.845288,
    "lng": 120.418909,
    "status": "In Progress",
    "flags": {
      "poorlySituated": true,
      "similarProject": false,
      "healthy": true,
      "other": false
    }
  },
  {
    "id": "P00621087LZ",
    "name": "Construction of Flood Control Structure along Camiling River (Right Bank), Tambugan-Sawat Section (Package A), Sta. 0+567 - Sta. 0+863, Camiling, Tarlac",
    "year": 2022,
    "region": "Region III",
    "contractor": "A.C. SOLIVEN CONSTRUCTION & GENERAL MERCHANDISE",
    "budget": 44756600.0,
    "lat": 15.705916,
    "lng": 120.419009,
    "status": "In Progress",
    "flags": {
      "poorlySituated": true,
      "similarProject": false,
      "healthy": false,
      "other": false
    }
  },
  {
    "id": "P00640527LZ",
    "name": "Construction of Slope Protection along Camiling River (Left Bank), Pindangan 1st - Pindangan 2nd Section (Package D), Camiling, Tarlac",
    "year": 2022,
    "region": "Region III",
    "contractor": "HIGH STRENGTH DEV. CORPORATION / RCUBE ENGINEERING SERVICES",
    "budget": 49500000.0,
    "lat": 15.748797,
    "lng": 120.419263,
    "status": "Proposed",
    "flags": {
      "poorlySituated": false,
      "similarProject": false,
      "healthy": false,
      "other": true
    }
  },
  {
    "id": "P00844719LZ",
    "name": "Construction of Flood Mitigating Structure, Barangay Pudoc, Bangar, La Union",
    "year": 2024,
    "region": "Region I",
    "contractor": "ARM-ASIA CONSTRUCTION & ENGINEERING",
    "budget": 48999990.12,
    "lat": 16.920519,
    "lng": 120.419463,
    "status": "Completed",
    "flags": {
      "poorlySituated": false,
      "similarProject": false,
      "healthy": true,
      "other": false
    }
  },
  {
    "id": "P00621161LZ",
    "name": "Construction of Camiling-Agno River Floodway, Tarlac, Phase 3",
    "year": 2022,
    "region": "Region III",
    "contractor": "BMK CONSTRUCTION CORPORATION (FORMERLY B.M.K. CONSTRUCTION) / ROYAL CROWN MONARCH CONSTRUCTION & SUPPLIES CORP.",
    "budget": 289496487.0,
    "lat": 15.747492,
    "lng": 120.419517,
    "status": "Completed",
    "flags": {
      "poorlySituated": false,
      "similarProject": false,
      "healthy": false,
      "other": false
    }
  },
  {
    "id": "P00823396LZ",
    "name": "Construciton of Flood Control Project Along Colo River , Maite Section , Phase IV-DMC, Hermosa, Bataan",
    "year": 2024,
    "region": "Region III",
    "contractor": "M.C.J. VALENZUELA CONSTRUCTION ENTERPRISES",
    "budget": 96499998.25,
    "lat": 14.845313,
    "lng": 120.420212,
    "status": "In Progress",
    "flags": {
      "poorlySituated": false,
      "similarProject": true,
      "healthy": false,
      "other": false
    }
  },
  {
    "id": "P00823296LZ",
    "name": "Construction of Darapidap Flood Control, Candon City, Ilocos Sur",
    "year": 2024,
    "region": "Region I",
    "contractor": "FIRST NORTHWAY DEVELOPMENT & CONSTRUCTION CORP.",
    "budget": 43120000.0,
    "lat": 17.20442,
    "lng": 120.42022,
    "status": "In Progress",
    "flags": {
      "poorlySituated": true,
      "similarProject": true,
      "healthy": false,
      "other": false
    }
  },
  {
    "id": "P00820729LZ",
    "name": "Construction of Slope Protection along Ingalera River, Barangay Barang, Malasiqui, Pangasinan (Phase V)",
    "year": 2024,
    "region": "Region I",
    "contractor": "BET CONSTRUCTION & SUPPLY / RIEMAR CONSTRUCTION",
    "budget": 49000000.0,
    "lat": 15.925,
    "lng": 120.421,
    "status": "In Progress",
    "flags": {
      "poorlySituated": false,
      "similarProject": false,
      "healthy": true,
      "other": true
    }
  },
  {
    "id": "P00621567LZ",
    "name": "Construction of Slope Protection Structure along Camiling River (Package H - Right Bank), Tambugan - Sawat Section, Camiling, Tarlac",
    "year": 2022,
    "region": "Region III",
    "contractor": "IM CONSTRUCTION CORPORATION",
    "budget": 96500000.0,
    "lat": 15.705803,
    "lng": 120.421745,
    "status": "In Progress",
    "flags": {
      "poorlySituated": false,
      "similarProject": true,
      "healthy": false,
      "other": false
    }
  },
  {
    "id": "P00621092LZ",
    "name": "Construction of Flood Mitigation Structure along Camiling River, Right Bank, Sawat Section (Package D), Sawat, Camiling, Tarlac",
    "year": 2022,
    "region": "Region III",
    "contractor": "R.R. RICAFORT CONSTRUCTION AND SUPPLIES",
    "budget": 49000000.0,
    "lat": 15.712043,
    "lng": 120.421926,
    "status": "In Progress",
    "flags": {
      "poorlySituated": false,
      "similarProject": true,
      "healthy": false,
      "other": false
    }
  },
  {
    "id": "P00637029LZ",
    "name": "Construction of Camiling-Agno River Floodway Phase 2, Tarlac",
    "year": 2022,
    "region": "Region III",
    "contractor": "ROYAL CROWN MONARCH CONSTRUCTION & SUPPLIES CORP.",
    "budget": 96500000.0,
    "lat": 15.752422,
    "lng": 120.422225,
    "status": "In Progress",
    "flags": {
      "poorlySituated": true,
      "similarProject": true,
      "healthy": false,
      "other": false
    }
  },
  {
    "id": "P00726067LZ",
    "name": "Construction of Slope Protection along Ingalera River, Barangay Barang, Malasiqui, Pangasinan (Phase IV)",
    "year": 2023,
    "region": "Region I",
    "contractor": "JEUSMACK BUILDERS & CONSTRUCTION SUPPLY",
    "budget": 19600000.0,
    "lat": 15.92619,
    "lng": 120.42261,
    "status": "In Progress",
    "flags": {
      "poorlySituated": true,
      "similarProject": false,
      "healthy": true,
      "other": false
    }
  },
  {
    "id": "P00621574LZ",
    "name": "Rehabilitation of Dike along O'Donnell River (Brgy. Maruglu Section, Sta.2+603.00 to Sta. 3+137.00 - Right Bank), Capas, Tarlac",
    "year": 2022,
    "region": "Region III",
    "contractor": "FLORDES CONSTRUCTION & TRADING CORP. (FORMERLY FLO",
    "budget": 96499871.83,
    "lat": 15.31976,
    "lng": 120.42262,
    "status": "Proposed",
    "flags": {
      "poorlySituated": false,
      "similarProject": true,
      "healthy": false,
      "other": true
    }
  },
  {
    "id": "P00737425LZ",
    "name": "Construction of Slope Protection along Ingalera River (Phase III), Barangay Barang, Malasiqui, Pangasinan",
    "year": 2023,
    "region": "Region I",
    "contractor": "JEUSMACK BUILDERS & CONSTRUCTION SUPPLY",
    "budget": 9900000.0,
    "lat": 15.926209,
    "lng": 120.423202,
    "status": "Proposed",
    "flags": {
      "poorlySituated": true,
      "similarProject": false,
      "healthy": false,
      "other": false
    }
  },
  {
    "id": "P00637018LZ",
    "name": "Construction of Slope Protection Structure with Steel Sheet Pile Foundation Along Delinquente Creek, Bacabac Section (Package B), Camiling, Tarlac",
    "year": 2022,
    "region": "Region III",
    "contractor": "ROYAL CROWN MONARCH CONSTRUCTION & SUPPLIES CORP.",
    "budget": 96500000.0,
    "lat": 15.727678,
    "lng": 120.423255,
    "status": "Proposed",
    "flags": {
      "poorlySituated": false,
      "similarProject": false,
      "healthy": false,
      "other": false
    }
  },
  {
    "id": "P00845905LZ",
    "name": "Construction of Flood Control Structure, Aringay River Basin, Brgy. Magsaysay, Tubao, La Union (Package 4)",
    "year": 2024,
    "region": "Region I",
    "contractor": "VILLAR GENERAL CONSTRUCTION AND SUPPLIES",
    "budget": 29699998.12,
    "lat": 16.344816,
    "lng": 120.423261,
    "status": "In Progress",
    "flags": {
      "poorlySituated": true,
      "similarProject": true,
      "healthy": false,
      "other": false
    }
  },
  {
    "id": "P00642731LZ",
    "name": "Rehabilitation of Flood Control System along Abra River, Calungbuyan Bridge, Santa, Ilocos Sur",
    "year": 2022,
    "region": "Region I",
    "contractor": "M.G. LUALHATI CONSTRUCTION CORP.",
    "budget": 28950000.0,
    "lat": 17.498897,
    "lng": 120.423654,
    "status": "Proposed",
    "flags": {
      "poorlySituated": true,
      "similarProject": false,
      "healthy": false,
      "other": false
    }
  },
  {
    "id": "P00821467LZ",
    "name": "Rehabilitation of Amburayan River Control, Barangay Consuegra to Barangay Alzate, Bangar , La Union",
    "year": 2024,
    "region": "Region I",
    "contractor": "AMETHYST HORIZON BUILDERS AND GEN. CONTRACTOR AND DEVELOPMENT CORP.",
    "budget": 48250000.0,
    "lat": 16.9097636,
    "lng": 120.423669,
    "status": "In Progress",
    "flags": {
      "poorlySituated": true,
      "similarProject": false,
      "healthy": false,
      "other": true
    }
  },
  {
    "id": "P00727083LZ",
    "name": "Construction of Villarica-Bagar-Caterman-Darapidap Flood Control, Villarica, Bagar, Caterman and Darapidap, Candon City, Ilocos Sur",
    "year": 2023,
    "region": "Region I",
    "contractor": "NORTH TECH BUILDERS AND CONSTRUCTION SUPPLY",
    "budget": 49000000.0,
    "lat": 17.20659,
    "lng": 120.42369,
    "status": "Completed",
    "flags": {
      "poorlySituated": true,
      "similarProject": true,
      "healthy": false,
      "other": true
    }
  },
  {
    "id": "P00820128LZ",
    "name": "Construction of Flood Mitigation Structure along Barangay Napaset, Luna, La Union",
    "year": 2024,
    "region": "Region I",
    "contractor": "ALPHA & OMEGA GEN. CONTRACTOR & DEVELOPMENT CORP.",
    "budget": 84262316.12,
    "lat": 16.849743,
    "lng": 120.423725,
    "status": "Proposed",
    "flags": {
      "poorlySituated": true,
      "similarProject": false,
      "healthy": true,
      "other": false
    }
  },
  {
    "id": "P00726341LZ",
    "name": "Construction of Flood Control System along Abra River Upstream and Downstream of Calungbuyan Bridge, Santa, Ilocos Sur",
    "year": 2023,
    "region": "Region I",
    "contractor": "BET CONSTRUCTION & SUPPLY / M.G. LUALHATI CONSTRUCTION CORP.",
    "budget": 104220000.0,
    "lat": 17.500141,
    "lng": 120.423916,
    "status": "In Progress",
    "flags": {
      "poorlySituated": true,
      "similarProject": true,
      "healthy": false,
      "other": true
    }
  },
  {
    "id": "P00726836LZ",
    "name": "Construction of River Bank Protection, Brgy. Sto. Tomas, San Jacinto, Pangasinan",
    "year": 2023,
    "region": "Region I",
    "contractor": "BET CONSTRUCTION & SUPPLY",
    "budget": 28950000.0,
    "lat": 16.071347,
    "lng": 120.424227,
    "status": "Completed",
    "flags": {
      "poorlySituated": true,
      "similarProject": true,
      "healthy": false,
      "other": false
    }
  },
  {
    "id": "P00735972LZ",
    "name": "Construction of Slope Protection with Steel Sheet Pile Foundation Along Delinquente Creek, Bacabac Section (Package M), Barangay Bacabac, Camiling, Tarlac",
    "year": 2023,
    "region": "Region III",
    "contractor": "ROYAL CROWN MONARCH CONSTRUCTION & SUPPLIES CORP.",
    "budget": 64655000.0,
    "lat": 15.727817,
    "lng": 120.424608,
    "status": "In Progress",
    "flags": {
      "poorlySituated": false,
      "similarProject": false,
      "healthy": true,
      "other": false
    }
  },
  {
    "id": "P00621238LZ",
    "name": "Construction of Flood Control Project in Maligaya River, Dinalupihan, Bataan",
    "year": 2022,
    "region": "Region III",
    "contractor": "ROCKSTEEL CONSTRUCTION AND DEV'T CORPORATION / EGB CONSTRUCTION CORPORATION (FORMERLY: EGB CONSTRUCTION)",
    "budget": 96499999.48,
    "lat": 14.867796,
    "lng": 120.424618,
    "status": "Completed",
    "flags": {
      "poorlySituated": true,
      "similarProject": true,
      "healthy": false,
      "other": false
    }
  },
  {
    "id": "P00621084LZ",
    "name": "Construction of Flood Control Structure along Camiling River (Left Bank), Libueg-Bacabac Section (Package D), Sta. 0+249 - Sta. 0+525, Camiling, Tarlac",
    "year": 2022,
    "region": "Region III",
    "contractor": "A.C. SOLIVEN CONSTRUCTION & GENERAL MERCHANDISE",
    "budget": 49000000.0,
    "lat": 15.716805,
    "lng": 120.424856,
    "status": "In Progress",
    "flags": {
      "poorlySituated": false,
      "similarProject": false,
      "healthy": false,
      "other": true
    }
  },
  {
    "id": "P00742270LZ",
    "name": "Construction of Calongbuyan Flood Control, Brgy. Calongbuyan, Candon City, Ilocos Sur",
    "year": 2023,
    "region": "Region I",
    "contractor": "FIRST NORTHWAY DEVELOPMENT & CONSTRUCTION CORP.",
    "budget": 19800000.0,
    "lat": 17.1755,
    "lng": 120.42507,
    "status": "In Progress",
    "flags": {
      "poorlySituated": true,
      "similarProject": false,
      "healthy": true,
      "other": true
    }
  },
  {
    "id": "P00620939LZ",
    "name": "Construction of Flood Mitigation Facilities along Amburayan River Basin, (Phase 1), Barangay Pacac-Baritao-Lantag-Pudoc East, Tagudin, Ilocos Sur",
    "year": 2022,
    "region": "Region I",
    "contractor": "POWER K CONSTRUCTION SUPPLY & SERVICES",
    "budget": 19300000.0,
    "lat": 16.9113,
    "lng": 120.42526,
    "status": "Proposed",
    "flags": {
      "poorlySituated": false,
      "similarProject": false,
      "healthy": false,
      "other": false
    }
  },
  {
    "id": "P00742310LZ",
    "name": "Construction of River Wall, Brgy. Bamban, Hermosa, Bataan",
    "year": 2023,
    "region": "Region III",
    "contractor": "JBI CONSTRUCTION",
    "budget": 4949998.84,
    "lat": 14.84645,
    "lng": 120.42536,
    "status": "Proposed",
    "flags": {
      "poorlySituated": false,
      "similarProject": true,
      "healthy": false,
      "other": false
    }
  },
  {
    "id": "P00824839LZ",
    "name": "Construction of Flood Control Structure along Aringay River Basin, Brgy. Magsaysay, Tubao, La Union",
    "year": 2024,
    "region": "Region I",
    "contractor": "VILLAR GENERAL CONSTRUCTION AND SUPPLIES",
    "budget": 19299998.89,
    "lat": 16.3491,
    "lng": 120.4257,
    "status": "In Progress",
    "flags": {
      "poorlySituated": false,
      "similarProject": true,
      "healthy": false,
      "other": false
    }
  },
  {
    "id": "P00844712LZ",
    "name": "Construction of Tabuculan Flood Control, Brgy Tabuculan Santa, Ilocos Sur",
    "year": 2024,
    "region": "Region I",
    "contractor": "M.V. SABALBURO CONSTRUCTION AND SUPPLY",
    "budget": 34300000.0,
    "lat": 17.49168,
    "lng": 120.42614,
    "status": "Proposed",
    "flags": {
      "poorlySituated": false,
      "similarProject": false,
      "healthy": true,
      "other": false
    }
  },
  {
    "id": "P00641929LZ",
    "name": "Construction of Patpata-Calungbuyan Flood Control, Candon City, Ilocos Sur",
    "year": 2022,
    "region": "Region I",
    "contractor": "FIRST NORTHWAY DEVELOPMENT & CONSTRUCTION CORP.",
    "budget": 24500000.0,
    "lat": 17.167052,
    "lng": 120.427193,
    "status": "In Progress",
    "flags": {
      "poorlySituated": false,
      "similarProject": true,
      "healthy": true,
      "other": true
    }
  },
  {
    "id": "P00640563LZ",
    "name": "Construction of Bank Slope Protection along Palicayan River, Paluan, Occidental Mindoro",
    "year": 2022,
    "region": "Region IV-B",
    "contractor": "HI-TONE CONSTRUCTION & DEVELOPMENT CORP. (FORMERLY",
    "budget": 49500000.0,
    "lat": 13.426097,
    "lng": 120.427976,
    "status": "Proposed",
    "flags": {
      "poorlySituated": true,
      "similarProject": true,
      "healthy": false,
      "other": true
    }
  },
  {
    "id": "P00726835LZ",
    "name": "Construction of River Bank Protection, Brgy. Sto. Tomas-Casibong, San Jacinto, Pangasinan",
    "year": 2023,
    "region": "Region I",
    "contractor": "BET CONSTRUCTION & SUPPLY",
    "budget": 48250000.0,
    "lat": 16.070934,
    "lng": 120.4281123,
    "status": "Proposed",
    "flags": {
      "poorlySituated": false,
      "similarProject": true,
      "healthy": false,
      "other": false
    }
  },
  {
    "id": "P00742278LZ",
    "name": "Construction of Slope Protection at Brgy. Sto Thomas, San Jacinto, Pangasinan",
    "year": 2023,
    "region": "Region I",
    "contractor": "ZOTA TRADING & CONSTRUCTION",
    "budget": 21780000.0,
    "lat": 16.07379,
    "lng": 120.4285,
    "status": "In Progress",
    "flags": {
      "poorlySituated": false,
      "similarProject": true,
      "healthy": true,
      "other": false
    }
  },
  {
    "id": "P00620503LZ",
    "name": "Construction of Flood Control Structure along Colo River San Benito Section, Phase IV-A, Dinalupihan, Bataan",
    "year": 2022,
    "region": "Region III",
    "contractor": "M.C.J. VALENZUELA CONSTRUCTION ENTERPRISES",
    "budget": 23956099.8,
    "lat": 14.843283,
    "lng": 120.42856,
    "status": "Proposed",
    "flags": {
      "poorlySituated": true,
      "similarProject": true,
      "healthy": true,
      "other": true
    }
  },
  {
    "id": "P00631268LZ",
    "name": "Construction of Flood Control Structures Along Camiling River Left Bank, Bacabac Section (Phase IV-2), Camiling, Tarlac",
    "year": 2022,
    "region": "Region III",
    "contractor": "GJE BUILDERS CORPORATION (FORMERLY: GJE BUILDERS)",
    "budget": 29400000.0,
    "lat": 15.720297,
    "lng": 120.42864,
    "status": "In Progress",
    "flags": {
      "poorlySituated": false,
      "similarProject": false,
      "healthy": false,
      "other": true
    }
  },
  {
    "id": "P00726712LZ",
    "name": "Construction of Flood Control along Colo River, Bamban Section Phase III-1C, Hermosa, Bataan",
    "year": 2023,
    "region": "Region III",
    "contractor": "PASCAL CONSTRUCTION",
    "budget": 29007996.56,
    "lat": 14.844964,
    "lng": 120.428716,
    "status": "In Progress",
    "flags": {
      "poorlySituated": true,
      "similarProject": true,
      "healthy": true,
      "other": false
    }
  },
  {
    "id": "P00821096LZ",
    "name": "Construction of Flood Control Structure Along Aringay River, Barangay Halog East, Tubao, La Union",
    "year": 2024,
    "region": "Region I",
    "contractor": "RODEKOM GENERAL CONSTRUCTION AND ENTERPRISE",
    "budget": 144750000.0,
    "lat": 16.356512,
    "lng": 120.428731,
    "status": "Proposed",
    "flags": {
      "poorlySituated": false,
      "similarProject": false,
      "healthy": false,
      "other": false
    }
  },
  {
    "id": "P00823290LZ",
    "name": "Construction of Flood Control Structure along Balili River, Barangay Aguioas, Naguilian, La Union",
    "year": 2024,
    "region": "Region I",
    "contractor": "MG SAMIDAN CONSTRUCTION",
    "budget": 115800000.0,
    "lat": 16.5148,
    "lng": 120.429,
    "status": "In Progress",
    "flags": {
      "poorlySituated": true,
      "similarProject": false,
      "healthy": false,
      "other": true
    }
  },
  {
    "id": "P00620778LZ",
    "name": "Construction of Flood Control along Bungro River, Sto. Domingo, Ilocos Sur",
    "year": 2022,
    "region": "Region I",
    "contractor": "A.P.B. CONSTRUCTION",
    "budget": 93100000.0,
    "lat": 17.62585,
    "lng": 120.429022,
    "status": "In Progress",
    "flags": {
      "poorlySituated": true,
      "similarProject": true,
      "healthy": true,
      "other": true
    }
  },
  {
    "id": "P00843205LZ",
    "name": "Construction of Flood Mitigation Structure along Maluyo River, Barangay Sablut, Balaoan, La Union",
    "year": 2024,
    "region": "Region I",
    "contractor": "SILVERWOLVES CONSTRUCTION CORPORATION",
    "budget": 96500000.0,
    "lat": 16.833328,
    "lng": 120.429063,
    "status": "Completed",
    "flags": {
      "poorlySituated": false,
      "similarProject": true,
      "healthy": false,
      "other": false
    }
  },
  {
    "id": "P00726335LZ",
    "name": "Construction of Flood Control Structure along Aringay River, Barangay Halog East - Halog West, Tubao, La Union",
    "year": 2023,
    "region": "Region I",
    "contractor": "RODEKOM GENERAL CONSTRUCTION AND ENTERPRISE",
    "budget": 144750000.0,
    "lat": 16.356468,
    "lng": 120.429417,
    "status": "Proposed",
    "flags": {
      "poorlySituated": false,
      "similarProject": false,
      "healthy": true,
      "other": false
    }
  },
  {
    "id": "P00621513LZ",
    "name": "Construction of Nagpanaoan Flood Control, Santa, Ilocos Sur",
    "year": 2022,
    "region": "Region I",
    "contractor": "M.V. SABALBURO CONSTRUCTION AND SUPPLY",
    "budget": 19600000.0,
    "lat": 17.54835,
    "lng": 120.42947,
    "status": "In Progress",
    "flags": {
      "poorlySituated": true,
      "similarProject": false,
      "healthy": true,
      "other": false
    }
  },
  {
    "id": "P00621569LZ",
    "name": "Construction of Slope Protection Structure along Camiling River (Packaqe B - Right Bank), Sawat - Bilad Section, Camiling, Tarlac",
    "year": 2022,
    "region": "Region III",
    "contractor": "ROYAL CROWN MONARCH CONSTRUCTION & SUPPLIES CORP.",
    "budget": 96500000.0,
    "lat": 15.725144,
    "lng": 120.429565,
    "status": "In Progress",
    "flags": {
      "poorlySituated": false,
      "similarProject": false,
      "healthy": false,
      "other": true
    }
  },
  {
    "id": "P00640494LZ",
    "name": "Construction of River Promenade (Flood Control) in Brgy. Quezon, Cabugao, Ilocos Sur",
    "year": 2022,
    "region": "Region I",
    "contractor": "R.B. PANO CONSTRUCTION CORP. (FORMERLY: R.B. PANO CONSTRUCTION AND SUPPLY)",
    "budget": 4950000.0,
    "lat": 17.796588,
    "lng": 120.457841,
    "status": "Completed",
    "flags": {
      "poorlySituated": false,
      "similarProject": false,
      "healthy": false,
      "other": true
    }
  },