[
  {
    "id": "P-2026-0514",
    "title": "Construction of Road Dike with Pumping Station, Phase 5, Macabebe-Masantol, Pampanga",
    "region": "Region III",
    "province": "Pampanga",
    "city": "Macabebe-Masantol",
    "barangay": "—",
    "status": "Proposed",
    "budget": "PHP 325,000,000.00",
    "budget_value": 325000000.0,
    "implementingAgency": "Central Office",
    "proponent": "Central Office",
    "submitted": "—",
    "flags": {
      "similarProject": false,
      "poorlySituated": false,
      "contractorIssues": false
    },
    "lat": 15.0477019,
    "lng": 120.66693146756865,
    "year": 2026
  },
  {
    "id": "P-2026-2043",
    "title": "Construction of Flood Protection Works along Surigao River, Package 2, San Roque Section, Surigao City, Surigao del Norte",
    "region": "Region XII",
    "province": "Surigao del Norte",
    "city": "Surigao City",
    "barangay": "—",
    "status": "Proposed",
    "budget": "PHP 300,000,000.00",
    "budget_value": 300000000.0,
    "implementingAgency": "Central Office",
    "proponent": "Central Office",
    "submitted": "—",
    "flags": {
      "similarProject": false,
      "poorlySituated": false,
      "contractorIssues": false
    },
    "lat": 9.74430717257528,
    "lng": 125.695950710931,
    "year": 2026
  },
  {
    "id": "P-2026-2044",
    "title": "Construction of Flood Protection Works along Surigao River, Phase 2, Poctoy Section, Surigao City, Surigao del Norte",
    "region": "Region XII",
    "province": "Surigao del Norte",
    "city": "Surigao City",
    "barangay": "—",
    "status": "Proposed",
    "budget": "PHP 300,000,000.00",
    "budget_value": 300000000.0,
    "implementingAgency": "Central Office",
    "proponent": "Central Office",
    "submitted": "—",
    "flags": {
      "similarProject": false,
      "poorlySituated": false,
      "contractorIssues": false
    },
    "lat": 9.74430717257528,
    "lng": 125.695950710931,
    "year": 2026
  },
  {
    "id": "P-2026-0746",
    "title": "Construction of Pacolago River Flood Mitigation Structure, Barangay Port Junction Norte, Ragay, Camarines Sur",
    "region": "Region V",
    "province": "Camarines Sur",
    "city": "Ragay",
    "barangay": "—",
    "status": "Proposed",
    "budget": "PHP 250,000,000.00",
    "budget_value": 250000000.0,
    "implementingAgency": "Central Office",
    "proponent": "Central Office",
    "submitted": "—",
    "flags": {
      "similarProject": false,
      "poorlySituated": false,
      "contractorIssues": false
    },
    "lat": 13.862572288142598,
    "lng": 122.66976333785766,
    "year": 2026
  },
  {
    "id": "P-2026-0897",
    "title": "Construction of Flood Mitigation Structure along CDO City-Dominorog-Camp Kibaritan Road, (Upstream) of Uguiaban Bridge, Talakag, Package 7, Bukidnon",
    "region": "Region X",
    "province": "Bukidnon",
    "city": "Package 7",
    "barangay": "—",
    "status": "Proposed",
    "budget": "PHP 250,000,000.00",
    "budget_value": 250000000.0,
    "implementingAgency": "Central Office",
    "proponent": "Central Office",
    "submitted": "—",
    "flags": {
      "similarProject": false,
      "poorlySituated": false,
      "contractorIssues": false
    },
    "lat": 7.922906469425863,
    "lng": 125.01421988550838,
    "year": 2026
  },
  {
    "id": "P-2026-1779",
    "title": "Construction of Revetment along Malaking Ilog River (Downstream) Phase 3, San Juan, Batangas",
    "region": "Region IV",
    "province": "Batangas",
    "city": "San Juan",
    "barangay": "—",
    "status": "Proposed",
    "budget": "PHP 250,000,000.00",
    "budget_value": 250000000.0,
    "implementingAgency": "Central Office",
    "proponent": "Central Office",
    "submitted": "—",
    "flags": {
      "similarProject": false,
      "poorlySituated": false,
      "contractorIssues": false
    },
    "lat": 13.792297506285417,
    "lng": 121.40421269688068,
    "year": 2026
  },
  {
    "id": "P-2026-1869",
    "title": "Construction of Flood Mitigation Structure along Sipalay River, Downstream, Barangay Mambaroto, Sipalay City, Negros Occidental",
    "region": "Region VI",
    "province": "Negros Occidental",
    "city": "Sipalay City",
    "barangay": "—",
    "status": "Proposed",
    "budget": "PHP 250,000,000.00",
    "budget_value": 250000000.0,
    "implementingAgency": "Central Office",
    "proponent": "Central Office",
    "submitted": "—",
    "flags": {
      "similarProject": false,
      "poorlySituated": false,
      "contractorIssues": false
    },
    "lat": 10.450222625745488,
    "lng": 123.00340905686686,
    "year": 2026
  },
  {
    "id": "P-2026-1954",
    "title": "Construction of Flood Mitigation Structure along CDO City-Dominorog-Camp Kibaritan Rd, Upstream of Pigcutin Bridge, Talakag, Bukidnon",
    "region": "Region X",
    "province": "Bukidnon",
    "city": "Talakag",
    "barangay": "—",
    "status": "Proposed",
    "budget": "PHP 240,825,000.00",
    "budget_value": 240825000.0,
    "implementingAgency": "Central Office",
    "proponent": "Central Office",
    "submitted": "—",
    "flags": {
      "similarProject": true,
      "poorlySituated": false,
      "contractorIssues": false
    },
    "lat": 8.105313357826189,
    "lng": 124.64029398381103,
    "year": 2026
  },
  {
    "id": "P-2026-0211",
    "title": "Construction of River Control Structure along Buaya River, Villa Hermosa to Quinsoriano Section, Sta. Cruz, Ilocos Sur",
    "region": "Region I",
    "province": "Ilocos Sur",
    "city": "Sta. Cruz",
    "barangay": "—",
    "status": "Proposed",
    "budget": "PHP 200,000,000.00",
    "budget_value": 200000000.0,
    "implementingAgency": "Central Office",
    "proponent": "Central Office",
    "submitted": "—",
    "flags": {
      "similarProject": false,
      "poorlySituated": false,
      "contractorIssues": false
    },
    "lat": 17.38262152655698,
    "lng": 120.4744002089233,
    "year": 2026
  },
  {
    "id": "P-2026-0586",
    "title": "Construction of Flood Control Structure along Baras River (Package A), Baras, Rizal",
    "region": "Region IV",
    "province": "Rizal",
    "city": "Baras",
    "barangay": "—",
    "status": "Proposed",
    "budget": "PHP 200,000,000.00",
    "budget_value": 200000000.0,
    "implementingAgency": "Central Office",
    "proponent": "Central Office",
    "submitted": "—",
    "flags": {
      "similarProject": false,
      "poorlySituated": false,
      "contractorIssues": false
    },
    "lat": 14.537453870182588,
    "lng": 121.26938061683984,
    "year": 2026
  },
  {
    "id": "P-2026-0675",
    "title": "Construction of Bicol River Flood Mitigation Structure, Barangay Ponong and Barangay Barobaybay, Magarao, Camarines Sur",
    "region": "Region V",
    "province": "Camarines Sur",
    "city": "Magarao",
    "barangay": "—",
    "status": "Proposed",
    "budget": "PHP 200,000,000.00",
    "budget_value": 200000000.0,
    "implementingAgency": "Central Office",
    "proponent": "Central Office",
    "submitted": "—",
    "flags": {
      "similarProject": false,
      "poorlySituated": false,
      "contractorIssues": false
    },
    "lat": 13.672480403031022,
    "lng": 123.17159056116056,
    "year": 2026
  },
  {
    "id": "P-2026-0676",
    "title": "Construction of Bicol River Flood Mitigation Structure, Barangay San Nicolas, Canaman, Camarines Sur",
    "region": "Region V",
    "province": "Camarines Sur",
    "city": "Canaman",
    "barangay": "—",
    "status": "Proposed",
    "budget": "PHP 200,000,000.00",
    "budget_value": 200000000.0,
    "implementingAgency": "Central Office",
    "proponent": "Central Office",
    "submitted": "—",
    "flags": {
      "similarProject": false,
      "poorlySituated": false,
      "contractorIssues": false
    },
    "lat": 13.657195220839684,
    "lng": 123.10516422486027,
    "year": 2026
  },
  {
    "id": "P-2026-0717",
    "title": "Construction of Flood Mitigation Structure along Pawili River, Barangay Santo Domingo, Bula, Camarines Sur",
    "region": "Region V",
    "province": "Camarines Sur",
    "city": "Bula",
    "barangay": "—",
    "status": "Proposed",
    "budget": "PHP 200,000,000.00",
    "budget_value": 200000000.0,
    "implementingAgency": "Central Office",
    "proponent": "Central Office",
    "submitted": "—",
    "flags": {
      "similarProject": false,
      "poorlySituated": false,
      "contractorIssues": false
    },
    "lat": 13.516223604454655,
    "lng": 123.28134085196544,
    "year": 2026
  },
  {
    "id": "P-2026-0737",
    "title": "Construction of Flood Mitigation Structure, Pawili River, Barangay Causip, Bula, Camarines Sur",
    "region": "Region V",
    "province": "Camarines Sur",
    "city": "Bula",
    "barangay": "—",
    "status": "Proposed",
    "budget": "PHP 200,000,000.00",
    "budget_value": 200000000.0,
    "implementingAgency": "Central Office",
    "proponent": "Central Office",
    "submitted": "—",
    "flags": {
      "similarProject": false,
      "poorlySituated": false,
      "contractorIssues": false
    },
    "lat": 13.50080280815447,
    "lng": 123.28249560885712,
    "year": 2026
  },
  {
    "id": "P-2026-0740",
    "title": "Construction of Flood Mitigation Structure, Tigman River, Barangay Cabanbanan, Calabanga, Camarines Sur",
    "region": "Region V",
    "province": "Camarines Sur",
    "city": "Calabanga",
    "barangay": "—",
    "status": "Proposed",
    "budget": "PHP 200,000,000.00",
    "budget_value": 200000000.0,
    "implementingAgency": "Central Office",
    "proponent": "Central Office",
    "submitted": "—",
    "flags": {
      "similarProject": false,
      "poorlySituated": false,
      "contractorIssues": false
    },
    "lat": 13.759496533364317,
    "lng": 123.29875781566496,
    "year": 2026
  },
  {
    "id": "P-2026-0741",
    "title": "Construction of Floodway Structure and River Improvement along Fabrica River, Barangay Sta. Remedios, Bulan, Sorsogon",
    "region": "Region V",
    "province": "Sorsogon",
    "city": "Bulan",
    "barangay": "—",
    "status": "Proposed",
    "budget": "PHP 200,000,000.00",
    "budget_value": 200000000.0,
    "implementingAgency": "Central Office",
    "proponent": "Central Office",
    "submitted": "—",
    "flags": {
      "similarProject": false,
      "poorlySituated": false,
      "contractorIssues": false
    },
    "lat": 12.675199204093053,
    "lng": 123.91137324636956,
    "year": 2026
  },
  {
    "id": "P-2026-0743",
    "title": "Construction of Floodway Structure and River Improvement along Quirangay River, Barangay Quirangay, Camalig, Albay",
    "region": "Region V",
    "province": "Albay",
    "city": "Camalig",
    "barangay": "—",
    "status": "Proposed",
    "budget": "PHP 200,000,000.00",
    "budget_value": 200000000.0,
    "implementingAgency": "Central Office",
    "proponent": "Central Office",
    "submitted": "—",
    "flags": {
      "similarProject": false,
      "poorlySituated": false,
      "contractorIssues": false
    },
    "lat": 13.213856321452331,
    "lng": 123.66433934965484,
    "year": 2026
  },
  {
    "id": "P-2026-0855",
    "title": "Construction of Seawall, Victoria, Northern Samar",
    "region": "Region VIII",
    "province": "Marinduque",
    "city": "Victoria",
    "barangay": "—",
    "status": "Proposed",
    "budget": "PHP 200,000,000.00",
    "budget_value": 200000000.0,
    "implementingAgency": "Central Office",
    "proponent": "Central Office",
    "submitted": "—",
    "flags": {
      "similarProject": false,
      "poorlySituated": false,
      "contractorIssues": false
    },
    "lat": 13.398350043270227,
    "lng": 121.92216123050356,
    "year": 2026
  },
  {
    "id": "P-2026-0939",
    "title": "Construction of Flood Mitigation Structure protecting Surigao del Sur Boundary - Davao Oriental Coastal Road (Dakung Banwa River), Boston, Davao Oriental",
    "region": "Region XI",
    "province": "Davao Oriental",
    "city": "Boston",
    "barangay": "—",
    "status": "Proposed",
    "budget": "PHP 200,000,000.00",
    "budget_value": 200000000.0,
    "implementingAgency": "Central Office",
    "proponent": "Central Office",
    "submitted": "—",
    "flags": {
      "similarProject": false,
      "poorlySituated": false,
      "contractorIssues": false
    },
    "lat": 7.861813162139573,
    "lng": 126.33331302846268,
    "year": 2026
  },
  {
    "id": "P-2026-1590",
    "title": "Construction of Flood Control Structure along Abra River, Downstream of Quirino Bridge, Quirino, Ilocos Sur :",
    "region": "Region II",
    "province": "Quirino",
    "city": "Downstream of Quirino Bridge",
    "barangay": "—",
    "status": "Proposed",
    "budget": "PHP 200,000,000.00",
    "budget_value": 200000000.0,
    "implementingAgency": "Central Office",
    "proponent": "Central Office",
    "submitted": "—",
    "flags": {
      "similarProject": false,
      "poorlySituated": false,
      "contractorIssues": false
    },
    "lat": 16.436720956102842,
    "lng": 121.59060545844363,
    "year": 2026
  },
  {
    "id": "P-2026-1646",
    "title": "Construction of Flood Control Structure along Cagayan River, Barangay Nassiping and Barangay San Vicente, Gattaran, Cagayan",
    "region": "Region II",
    "province": "Cagayan",
    "city": "Gattaran",
    "barangay": "—",
    "status": "Proposed",
    "budget": "PHP 200,000,000.00",
    "budget_value": 200000000.0,
    "implementingAgency": "Central Office",
    "proponent": "Central Office",
    "submitted": "—",
    "flags": {
      "similarProject": false,
      "poorlySituated": false,
      "contractorIssues": false
    },
    "lat": 18.048308091986133,
    "lng": 121.72747501688092,
    "year": 2026
  },
  {
    "id": "P-2026-1746",
    "title": "Construction of Flood Mitigation Structure along Guaguga-Pasac River, Phase V, Sasmuan, Pampanga",
    "region": "Region III",
    "province": "Pampanga",
    "city": "Sasmuan",
    "barangay": "—",
    "status": "Proposed",
    "budget": "PHP 200,000,000.00",
    "budget_value": 200000000.0,
    "implementingAgency": "Central Office",
    "proponent": "Central Office",
    "submitted": "—",
    "flags": {
      "similarProject": false,
      "poorlySituated": false,
      "contractorIssues": false
    },
    "lat": 15.0477019,
    "lng": 120.66693146756865,
    "year": 2026
  },
  {
    "id": "P-2026-1776",
    "title": "Construction of Flood Control Structure along Agos River, Package 10, Infanta, Quezon",
    "region": "Region IV",
    "province": "Quezon",
    "city": "Infanta",
    "barangay": "—",
    "status": "Proposed",
    "budget": "PHP 200,000,000.00",
    "budget_value": 200000000.0,
    "implementingAgency": "Central Office",
    "proponent": "Central Office",
    "submitted": "—",
    "flags": {
      "similarProject": false,
      "poorlySituated": false,
      "contractorIssues": false
    },
    "lat": 14.731209408343153,
    "lng": 121.65313929514132,
    "year": 2026
  },
  {
    "id": "P-2026-1777",
    "title": "Construction of Flood Control Structure along Agos River, Package 11, Infanta, Quezon",
    "region": "Region IV",
    "province": "Quezon",
    "city": "Infanta",
    "barangay": "—",
    "status": "Proposed",
    "budget": "PHP 200,000,000.00",
    "budget_value": 200000000.0,
    "implementingAgency": "Central Office",
    "proponent": "Central Office",
    "submitted": "—",
    "flags": {
      "similarProject": false,
      "poorlySituated": false,
      "contractorIssues": false
    },
    "lat": 14.731209408343153,
    "lng": 121.65313929514132,
    "year": 2026
  },
  {
    "id": "P-2026-1778",
    "title": "Construction of Flood Control Structure along Agos River, Package 9, Infanta, Quezon",
    "region": "Region IV",
    "province": "Quezon",
    "city": "Infanta",
    "barangay": "—",
    "status": "Proposed",
    "budget": "PHP 200,000,000.00",
    "budget_value": 200000000.0,
    "implementingAgency": "Central Office",
    "proponent": "Central Office",
    "submitted": "—",
    "flags": {
      "similarProject": false,
      "poorlySituated": false,
      "contractorIssues": false
    },
    "lat": 14.731209408343153,
    "lng": 121.65313929514132,
    "year": 2026
  },
  {
    "id": "P-2026-1911",
    "title": "Construction of Flood Control Structure, Bacalan Br. Section (B00497MN), Lanao- Pagadian-Zamboanga City Rd (S01113MN), Zamboanga Sibugay",
    "region": "Region IX",
    "province": "Zamboanga Sibugay",
    "city": "Lanao- Pagadian-Zamboanga City Rd (S01113MN)",
    "barangay": "—",
    "status": "Proposed",
    "budget": "PHP 200,000,000.00",
    "budget_value": 200000000.0,
    "implementingAgency": "Central Office",
    "proponent": "Central Office",
    "submitted": "—",
    "flags": {
      "similarProject": false,
      "poorlySituated": false,
      "contractorIssues": false
    },
    "lat": 7.668004684527833,
    "lng": 122.81281372646626,
    "year": 2026
  },
  {
    "id": "P-2026-1918",
    "title": "Construction of Flood Control Structure, Kabasalan River (Upstream) (Phase 6), Package 3, Canacan, Kabasalan, Zamboanga Sibugay",
    "region": "Region IX",
    "province": "Zamboanga Sibugay",
    "city": "Kabasalan",
    "barangay": "—",
    "status": "Proposed",
    "budget": "PHP 200,000,000.00",
    "budget_value": 200000000.0,
    "implementingAgency": "Central Office",
    "proponent": "Central Office",
    "submitted": "—",
    "flags": {
      "similarProject": false,
      "poorlySituated": false,
      "contractorIssues": false
    },
    "lat": 7.832012242378944,
    "lng": 122.8079836118693,
    "year": 2026
  },
  {
    "id": "P-2026-1919",
    "title": "Construction of Flood Control Structure, Kipit River, Kipit Br. Section along Liloy - Siocon Road (S01146MN), Gutalac, Zamboanga del Norte",
    "region": "Region IX",
    "province": "Zamboanga del Norte",
    "city": "Gutalac",
    "barangay": "—",
    "status": "Proposed",
    "budget": "PHP 200,000,000.00",
    "budget_value": 200000000.0,
    "implementingAgency": "Central Office",
    "proponent": "Central Office",
    "submitted": "—",
    "flags": {
      "similarProject": false,
      "poorlySituated": false,
      "contractorIssues": false
    },
    "lat": 7.989155831379485,
    "lng": 122.3654479106188,
    "year": 2026
  },
  {
    "id": "P-2026-2034",
    "title": "Construction of Flood Control Structure, Agusan River, Phase 6, Veruela, Agusan del Sur",
    "region": "Region XII",
    "province": "Agusan del Sur",
    "city": "Veruela",
    "barangay": "—",
    "status": "Proposed",
    "budget": "PHP 200,000,000.00",
    "budget_value": 200000000.0,
    "implementingAgency": "Central Office",
    "proponent": "Central Office",
    "submitted": "—",
    "flags": {
      "similarProject": false,
      "poorlySituated": false,
      "contractorIssues": false
    },
    "lat": 8.023462913378506,
    "lng": 125.91031332802774,
    "year": 2026
  },
  {
    "id": "P-2026-1867",
    "title": "Construction of Flood Mitigation Structure along Ilog-Hilabangan River (Approach B Downstream of Old Camugao Hanging Br.), Section 1, Barangay Camugao, Kabankalan City, Negros Occidental",
    "region": "Region VI",
    "province": "Negros Occidental",
    "city": "Kabankalan City",
    "barangay": "—",
    "status": "Proposed",
    "budget": "PHP 195,000,000.00",
    "budget_value": 195000000.0,
    "implementingAgency": "Central Office",
    "proponent": "Central Office",
    "submitted": "—",
    "flags": {
      "similarProject": false,
      "poorlySituated": false,
      "contractorIssues": false
    },
    "lat": 10.450222625745488,
    "lng": 123.00340905686686,
    "year": 2026
  },
  {
    "id": "P-2026-1758",
    "title": "Rehabilitation of Dike along Angat River at Barangay Sapang Bayan, Barangay Sto. Nino, Barangay Pungo, Calumpit, Bulacan",
    "region": "Region III",
    "province": "Bulacan",
    "city": "Calumpit",
    "barangay": "—",
    "status": "Proposed",
    "budget": "PHP 190,000,000.00",
    "budget_value": 190000000.0,
    "implementingAgency": "Central Office",
    "proponent": "Central Office",
    "submitted": "—",
    "flags": {
      "similarProject": false,
      "poorlySituated": false,
      "contractorIssues": false
    },
    "lat": 14.919648763711328,
    "lng": 120.77605409561517,
    "year": 2026
  },
  {
    "id": "P-2026-1910",
    "title": "Construction of Flood Control Structure at Sibuguey River, Sibuguey Br. Section (BO0480MN), Package 4, along Lanao-Pagadian-Zamboanga City Road (S01112MN) Upstream Left Side, Zamboanga Sibugay",
    "region": "Region IX",
    "province": "Zamboanga Sibugay",
    "city": "along Lanao-Pagadian-Zamboanga City Road (S01112MN) Upstream Left Side",
    "barangay": "—",
    "status": "Proposed",
    "budget": "PHP 190,000,000.00",
    "budget_value": 190000000.0,
    "implementingAgency": "Central Office",
    "proponent": "Central Office",
    "submitted": "—",
    "flags": {
      "similarProject": false,
      "poorlySituated": false,
      "contractorIssues": false
    },
    "lat": 7.668004684527833,
    "lng": 122.81281372646626,
    "year": 2026
  },
  {
    "id": "P-2026-0339",
    "title": "Construction of Abacan River Diking and Slope Protection Work, Phase 3, Mexico, Pampanga",
    "region": "Region III",
    "province": "Pampanga",
    "city": "Mexico",
    "barangay": "—",
    "status": "Proposed",
    "budget": "PHP 186,000,000.00",
    "budget_value": 186000000.0,
    "implementingAgency": "Central Office",
    "proponent": "Central Office",
    "submitted": "—",
    "flags": {
      "similarProject": false,
      "poorlySituated": false,
      "contractorIssues": false
    },
    "lat": 15.08983684306614,
    "lng": 120.70254531351256,
    "year": 2026
  },
  {
    "id": "P-2026-1926",
    "title": "Construction of Flood Control Structure, Siocon River, Package 3, (Upstream), Siocon, Zamboanga del Norte",
    "region": "Region IX",
    "province": "Zamboanga del Norte",
    "city": "Siocon",
    "barangay": "—",
    "status": "Proposed",
    "budget": "PHP 185,360,000.00",
    "budget_value": 185360000.0,
    "implementingAgency": "Central Office",
    "proponent": "Central Office",
    "submitted": "—",
    "flags": {
      "similarProject": false,
      "poorlySituated": false,
      "contractorIssues": false
    },
    "lat": 7.705846411379626,
    "lng": 122.15308515976685,
    "year": 2026
  },
  {
    "id": "P-2026-0582",
    "title": "Construction of Dike along Rio Grande River, Phase IV, Barangay Santiago, General Trias, Cavite",
    "region": "Region IV",
    "province": "Cavite",
    "city": "General Trias",
    "barangay": "—",
    "status": "Proposed",
    "budget": "PHP 180,000,000.00",
    "budget_value": 180000000.0,
    "implementingAgency": "Central Office",
    "proponent": "Central Office",
    "submitted": "—",
    "flags": {
      "similarProject": false,
      "poorlySituated": false,
      "contractorIssues": false
    },
    "lat": 14.340350984786369,
    "lng": 120.90753026146918,
    "year": 2026
  },
  {
    "id": "P-2026-0984",
    "title": "Construction of Flood Mitigation Structure along Agay River, Barangay Balang-Balang, Remedios T. Romualdez, Agusan del Norte",
    "region": "Region XI",
    "province": "Agusan del Norte",
    "city": "Remedios T. Romualdez",
    "barangay": "—",
    "status": "Proposed",
    "budget": "PHP 180,000,000.00",
    "budget_value": 180000000.0,
    "implementingAgency": "Central Office",
    "proponent": "Central Office",
    "submitted": "—",
    "flags": {
      "similarProject": true,
      "poorlySituated": false,
      "contractorIssues": false
    },
    "lat": 9.053788092670665,
    "lng": 125.59274949623814,
    "year": 2026
  },
  {
    "id": "P-2026-0985",
    "title": "Construction of Flood Mitigation Structure along Agay River, Barangay San Antonio, Remedios T. Romualdez, Agusan del Norte",
    "region": "Region XI",
    "province": "Agusan del Norte",
    "city": "Remedios T. Romualdez",
    "barangay": "—",
    "status": "Proposed",
    "budget": "PHP 180,000,000.00",
    "budget_value": 180000000.0,
    "implementingAgency": "Central Office",
    "proponent": "Central Office",
    "submitted": "—",
    "flags": {
      "similarProject": true,
      "poorlySituated": false,
      "contractorIssues": false
    },
    "lat": 9.066929174254303,
    "lng": 125.6879428529995,
    "year": 2026
  },
  {
    "id": "P-2026-0714",
    "title": "Construction of Flood Mitigation Structure along Matoogtoog River, Barangay Hinipaan, Mercedes, Camarines Norte",
    "region": "Region V",
    "province": "Camarines Norte",
    "city": "Mercedes",
    "barangay": "—",
    "status": "Proposed",
    "budget": "PHP 175,000,000.00",
    "budget_value": 175000000.0,
    "implementingAgency": "Central Office",
    "proponent": "Central Office",
    "submitted": "—",
    "flags": {
      "similarProject": false,
      "poorlySituated": false,
      "contractorIssues": false
    },
    "lat": 13.990632190179896,
    "lng": 123.04565075983304,
    "year": 2026
  },
  {
    "id": "P-2026-0715",
    "title": "Construction of Flood Mitigation Structure along Matoogtoog River, Barangay Matoogtoog, Mercedes, Camarines Norte",
    "region": "Region V",
    "province": "Camarines Norte",
    "city": "Mercedes",
    "barangay": "—",
    "status": "Proposed",
    "budget": "PHP 175,000,000.00",
    "budget_value": 175000000.0,
    "implementingAgency": "Central Office",
    "proponent": "Central Office",
    "submitted": "—",
    "flags": {
      "similarProject": false,
      "poorlySituated": false,
      "contractorIssues": false
    },
    "lat": 14.00394723264053,
    "lng": 123.02886047384688,
    "year": 2026
  },
  {
    "id": "P-2026-1905",
    "title": "Construction of Flood Mitigation Structure, Pagsanga-an River Basin, Package 1, Ormoc, Leyte",
    "region": "Region VIII",
    "province": "Leyte",
    "city": "Ormoc",
    "barangay": "—",
    "status": "Proposed",
    "budget": "PHP 175,000,000.00",
    "budget_value": 175000000.0,
    "implementingAgency": "Central Office",
    "proponent": "Central Office",
    "submitted": "—",
    "flags": {
      "similarProject": false,
      "poorlySituated": false,
      "contractorIssues": false
    },
    "lat": 11.005215251552968,
    "lng": 124.7799898165803,
    "year": 2026
  },
  {
    "id": "P-2026-0710",
    "title": "Construction of Flood Mitigation Structure along Lagonoy River, Barangay Saripongpong, Lagonoy, Camarines Sur",
    "region": "Region V",
    "province": "Camarines Sur",
    "city": "Lagonoy",
    "barangay": "—",
    "status": "Proposed",
    "budget": "PHP 171,000,000.00",
    "budget_value": 171000000.0,
    "implementingAgency": "Central Office",
    "proponent": "Central Office",
    "submitted": "—",
    "flags": {
      "similarProject": false,
      "poorlySituated": false,
      "contractorIssues": false
    },
    "lat": 13.733294337999046,
    "lng": 123.51448443438282,
    "year": 2026
  },
  {
    "id": "P-2026-2028",
    "title": "Construction of Flood Control Mitigation Structure along Agusan River (Tungao Section), Package 3, Butuan City, Agusan del Norte",
    "region": "Region XII",
    "province": "Agusan del Norte",
    "city": "Butuan City",
    "barangay": "—",
    "status": "Proposed",
    "budget": "PHP 171,000,000.00",
    "budget_value": 171000000.0,
    "implementingAgency": "Central Office",
    "proponent": "Central Office",
    "submitted": "—",
    "flags": {
      "similarProject": false,
      "poorlySituated": false,
      "contractorIssues": false
    },
    "lat": 9.025997185209178,
    "lng": 125.51837723314888,
    "year": 2026
  },
  {
    "id": "P-2026-0166",
    "title": "Construction of Flood Control Structure along Amburayan River, Phase 1, Barangay Pallogan - Cabulanglangan - Ag-Aguman - Pula, Tagudin, Ilocos Sur",
    "region": "Region I",
    "province": "Ilocos Sur",
    "city": "Tagudin",
    "barangay": "—",
    "status": "Proposed",
    "budget": "PHP 170,000,000.00",
    "budget_value": 170000000.0,
    "implementingAgency": "Central Office",
    "proponent": "Central Office",
    "submitted": "—",
    "flags": {
      "similarProject": false,
      "poorlySituated": false,
      "contractorIssues": false
    },
    "lat": 16.93414576975035,
    "lng": 120.44898661165212,
    "year": 2026
  },
  {
    "id": "P-2026-0167",
    "title": "Construction of Flood Control Structure along Amburayan River, Phase 2, Barangay Pallogan - Cabulanglangan - Ag-Aguman - Pula, Tagudin, Ilocos Sur",
    "region": "Region I",
    "province": "Ilocos Sur",
    "city": "Tagudin",
    "barangay": "—",
    "status": "Proposed",
    "budget": "PHP 170,000,000.00",
    "budget_value": 170000000.0,
    "implementingAgency": "Central Office",
    "proponent": "Central Office",
    "submitted": "—",
    "flags": {
      "similarProject": false,
      "poorlySituated": false,
      "contractorIssues": false
    },
    "lat": 16.93414576975035,
    "lng": 120.44898661165212,
    "year": 2026
  },
  {
    "id": "P-2026-0653",
    "title": "Construction of Binayaan River Control Structure along Sibuyan Circumferential Road, Sibuyan, Romblon",
    "region": "Region IV",
    "province": "Romblon",
    "city": "Sibuyan",
    "barangay": "—",
    "status": "Proposed",
    "budget": "PHP 170,000,000.00",
    "budget_value": 170000000.0,
    "implementingAgency": "Central Office",
    "proponent": "Central Office",
    "submitted": "—",
    "flags": {
      "similarProject": false,
      "poorlySituated": false,
      "contractorIssues": false
    },
    "lat": 12.535973152603782,
    "lng": 122.10777621615026,
    "year": 2026
  },
  {
    "id": "P-2026-0705",
    "title": "Construction of Flood Mitigation Structure along Culasi River, Barangay Pambuhan, Mercedes, Camarines Norte",
    "region": "Region V",
    "province": "Camarines Norte",
    "city": "Mercedes",
    "barangay": "—",
    "status": "Proposed",
    "budget": "PHP 170,000,000.00",
    "budget_value": 170000000.0,
    "implementingAgency": "Central Office",
    "proponent": "Central Office",
    "submitted": "—",
    "flags": {
      "similarProject": false,
      "poorlySituated": false,
      "contractorIssues": false
    },
    "lat": 13.969974755443095,
    "lng": 123.0742318892618,
    "year": 2026
  },
  {
    "id": "P-2026-0706",
    "title": "Construction of Flood Mitigation Structure along Guinacutan River, Barangay Guinacutan, Vinzons, Camarines Norte",
    "region": "Region V",
    "province": "Camarines Norte",
    "city": "Vinzons",
    "barangay": "—",
    "status": "Proposed",
    "budget": "PHP 170,000,000.00",
    "budget_value": 170000000.0,
    "implementingAgency": "Central Office",
    "proponent": "Central Office",
    "submitted": "—",
    "flags": {
      "similarProject": false,
      "poorlySituated": false,
      "contractorIssues": false
    },
    "lat": 14.164149771688123,
    "lng": 122.88461688095084,
    "year": 2026
  },
  {
    "id": "P-2026-1773",
    "title": "Rehabilitation of River Control System along Diteki - Aguang River Control, San Luis and Baler, Aurora",
    "region": "Region III",
    "province": "Aurora",
    "city": "San Luis and Baler",
    "barangay": "—",
    "status": "Proposed",
    "budget": "PHP 170,000,000.00",
    "budget_value": 170000000.0,
    "implementingAgency": "Central Office",
    "proponent": "Central Office",
    "submitted": "—",
    "flags": {
      "similarProject": false,
      "poorlySituated": false,
      "contractorIssues": false
    },
    "lat": 15.957341324354092,
    "lng": 121.57014837659348,
    "year": 2026
  },
  {
    "id": "P-2026-1623",
    "title": "Construction of Alimit Flood Control Structure, Sta. 54 + 790 - Sta. 55 + 345 (RS), Sta. 55 + 400 - Sta. 56 + 090 (LS), Alimit, Mayoyao, Ifugao",
    "region": "Cordillera Administrative Region",
    "province": "Ifugao",
    "city": "Mayoyao",
    "barangay": "—",
    "status": "Proposed",
    "budget": "PHP 165,000,000.00",
    "budget_value": 165000000.0,
    "implementingAgency": "Central Office",
    "proponent": "Central Office",
    "submitted": "—",
    "flags": {
      "similarProject": false,
      "poorlySituated": false,
      "contractorIssues": false
    },
    "lat": 16.960189415508676,
    "lng": 121.21171130278466,
    "year": 2026
  },
  {
    "id": "P-2026-1872",
    "title": "Construction of Flood Control Structure along Panalipan River, Package 1, Catmon, Cebu",
    "region": "Region VII",
    "province": "Cebu",
    "city": "Catmon",
    "barangay": "—",
    "status": "Proposed",
    "budget": "PHP 165,000,000.00",
    "budget_value": 165000000.0,
    "implementingAgency": "Central Office",
    "proponent": "Central Office",
    "submitted": "—",
    "flags": {
      "similarProject": false,
      "poorlySituated": false,
      "contractorIssues": false
    },
    "lat": 10.690376163989464,
    "lng": 123.97579188870294,
    "year": 2026
  },
  {
    "id": "P-2026-0245",
    "title": "Rehabilitation of Flood Control Structure, Amburayan River, Phase 1, Barangay Alzate - Barangay Generla Prim West, Bangar, La Union",
    "region": "Region I",
    "province": "La Union",
    "city": "Bangar",
    "barangay": "—",
    "status": "Proposed",
    "budget": "PHP 160,000,000.00",
    "budget_value": 160000000.0,
    "implementingAgency": "Central Office",
    "proponent": "Central Office",
    "submitted": "—",
    "flags": {
      "similarProject": false,
      "poorlySituated": false,
      "contractorIssues": false
    },
    "lat": 16.89248664777574,
    "lng": 120.4289178937086,
    "year": 2026
  },
  {
    "id": "P-2026-0990",
    "title": "Construction of Hood Mitigation Structure, Package 1, Barangay Santa Ana, Nasipit, Agusan del Norte",
    "region": "Region XI",
    "province": "Agusan del Norte",
    "city": "Nasipit",
    "barangay": "—",
    "status": "Proposed",
    "budget": "PHP 160,000,000.00",
    "budget_value": 160000000.0,
    "implementingAgency": "Central Office",
    "proponent": "Central Office",
    "submitted": "—",
    "flags": {
      "similarProject": false,
      "poorlySituated": false,
      "contractorIssues": false
    },
    "lat": 8.983143462797644,
    "lng": 125.3275199838146,
    "year": 2026
  },
  {
    "id": "P-2026-1716",
    "title": "Construction of Aguang Flood Control Structure, Phase 4, Baler, Aurora",
    "region": "Region III",
    "province": "Aurora",
    "city": "Baler",
    "barangay": "—",
    "status": "Proposed",
    "budget": "PHP 160,000,000.00",
    "budget_value": 160000000.0,
    "implementingAgency": "Central Office",
    "proponent": "Central Office",
    "submitted": "—",
    "flags": {
      "similarProject": false,
      "poorlySituated": false,
      "contractorIssues": false
    },
    "lat": 15.957341324354092,
    "lng": 121.57014837659348,
    "year": 2026
  },
  {
    "id": "P-2026-1902",
    "title": "Construction of Flood Mitigation Structure along Daguitan River, Barangay Barbo, Dulag, Leyte",
    "region": "Region VIII",
    "province": "Leyte",
    "city": "Dulag",
    "barangay": "—",
    "status": "Proposed",
    "budget": "PHP 160,000,000.00",
    "budget_value": 160000000.0,
    "implementingAgency": "Central Office",
    "proponent": "Central Office",
    "submitted": "—",
    "flags": {
      "similarProject": false,
      "poorlySituated": false,
      "contractorIssues": false
    },
    "lat": 10.940939110667262,
    "lng": 125.02764910201728,
    "year": 2026
  },
  {
    "id": "P-2026-0671",
    "title": "Construction of Slope Protection Structure along New Ibajay Bridge, Taytay, Palawan",
    "region": "Region IV",
    "province": "Palawan",
    "city": "Taytay",
    "barangay": "—",
    "status": "Proposed",
    "budget": "PHP 159,000,000.00",
    "budget_value": 159000000.0,
    "implementingAgency": "Central Office",
    "proponent": "Central Office",
    "submitted": "—",
    "flags": {
      "similarProject": false,
      "poorlySituated": false,
      "contractorIssues": false
    },
    "lat": 10.90342833595511,
    "lng": 119.46583126287938,
    "year": 2026
  },
  {
    "id": "P-2026-0672",
    "title": "Construction of Slope Protection Structure, Barangay San Jose, Roxas, Palawan",
    "region": "Region IV",
    "province": "Palawan",
    "city": "Roxas",
    "barangay": "—",
    "status": "Proposed",
    "budget": "PHP 159,000,000.00",
    "budget_value": 159000000.0,
    "implementingAgency": "Central Office",
    "proponent": "Central Office",
    "submitted": "—",
    "flags": {
      "similarProject": false,
      "poorlySituated": false,
      "contractorIssues": false
    },
    "lat": 10.31701836967678,
    "lng": 119.2543615517649,
    "year": 2026
  },
  {
    "id": "P-2026-0607",
    "title": "Construction of Revetment along San Isidro River, Phase 1, Silang, Cavite",
    "region": "Region IV",
    "province": "Cavite",
    "city": "Silang",
    "barangay": "—",
    "status": "Proposed",
    "budget": "PHP 157,000,000.00",
    "budget_value": 157000000.0,
    "implementingAgency": "Central Office",
    "proponent": "Central Office",
    "submitted": "—",
    "flags": {
      "similarProject": false,
      "poorlySituated": false,
      "contractorIssues": false
    },
    "lat": 14.220569048041844,
    "lng": 120.981097,
    "year": 2026
  },
  {
    "id": "P-2026-1798",
    "title": "Construction of Flood Control Structure along Carguray River, Barangay Paclolo, Magsaysay, Occidental Mindoro",
    "region": "Region IV",
    "province": "Occidental Mindoro",
    "city": "Magsaysay",
    "barangay": "—",
    "status": "Proposed",
    "budget": "PHP 157,000,000.00",
    "budget_value": 157000000.0,
    "implementingAgency": "Central Office",
    "proponent": "Central Office",
    "submitted": "—",
    "flags": {
      "similarProject": false,
      "poorlySituated": false,
      "contractorIssues": false
    },
    "lat": 12.42844115662809,
    "lng": 121.19138787384702,
    "year": 2026
  },
  {
    "id": "P-2026-0207",
    "title": "Construction of Flood Mitigation Structure along Gantay River, Package A, Barangay Sipulo, Bacnotan, La Union",
    "region": "Region I",
    "province": "La Union",
    "city": "Bacnotan",
    "barangay": "—",
    "status": "Proposed",
    "budget": "PHP 155,000,000.00",
    "budget_value": 155000000.0,
    "implementingAgency": "Central Office",
    "proponent": "Central Office",
    "submitted": "—",
    "flags": {
      "similarProject": false,
      "poorlySituated": false,
      "contractorIssues": false
    },
    "lat": 16.73831034516537,
    "lng": 120.35326164228448,
    "year": 2026
  },
  {
    "id": "P-2026-0208",
    "title": "Construction of Flood Mitigation Structure along Gantay River, Package B, Barangay Sipulo, Bacnotan, La Union",
    "region": "Region I",
    "province": "La Union",
    "city": "Bacnotan",
    "barangay": "—",
    "status": "Proposed",
    "budget": "PHP 155,000,000.00",
    "budget_value": 155000000.0,
    "implementingAgency": "Central Office",
    "proponent": "Central Office",
    "submitted": "—",
    "flags": {
      "similarProject": false,
      "poorlySituated": false,
      "contractorIssues": false
    },
    "lat": 16.73831034516537,
    "lng": 120.35326164228448,
    "year": 2026
  },
  {
    "id": "P-2026-0331",
    "title": "Construction of Seawall, Barangay Minanga Este, Buguey, Cagayan",
    "region": "Region II",
    "province": "Cagayan",
    "city": "Buguey",
    "barangay": "—",
    "status": "Proposed",
    "budget": "PHP 155,000,000.00",
    "budget_value": 155000000.0,
    "implementingAgency": "Central Office",
    "proponent": "Central Office",
    "submitted": "—",
    "flags": {
      "similarProject": false,
      "poorlySituated": false,
      "contractorIssues": false
    },
    "lat": 18.27166248088329,
    "lng": 121.8917639972146,
    "year": 2026
  },
  {
    "id": "P-2026-0336",
    "title": "Construction of Tuguegarao Circumferential Dike Road, Package 5, Tuguegarao City, Cagayan",
    "region": "Region II",
    "province": "Cagayan",
    "city": "Tuguegarao City",
    "barangay": "—",
    "status": "Proposed",
    "budget": "PHP 155,000,000.00",
    "budget_value": 155000000.0,
    "implementingAgency": "Central Office",
    "proponent": "Central Office",
    "submitted": "—",
    "flags": {
      "similarProject": false,
      "poorlySituated": false,
      "contractorIssues": false
    },
    "lat": 18.05472487807191,
    "lng": 121.6285188950023,
    "year": 2026
  },
  {
    "id": "P-2026-0744",
    "title": "Construction of Malagunot River Flood Mitigation Structures, Barangay Angas and Barangay Tacad, Basud, Camarines Norte",
    "region": "Region V",
    "province": "Camarines Norte",
    "city": "Basud",
    "barangay": "—",
    "status": "Proposed",
    "budget": "PHP 155,000,000.00",
    "budget_value": 155000000.0,
    "implementingAgency": "Central Office",
    "proponent": "Central Office",
    "submitted": "—",
    "flags": {
      "similarProject": false,
      "poorlySituated": false,
      "contractorIssues": false
    },
    "lat": 14.04571105534469,
    "lng": 122.97329602185545,
    "year": 2026
  },
  {
    "id": "P-2026-0745",
    "title": "Construction of Malagunot River Flood Mitigation Structures, Barangay Hinampacan, Basud, Camarines Norte",
    "region": "Region V",
    "province": "Camarines Norte",
    "city": "Basud",
    "barangay": "—",
    "status": "Proposed",
    "budget": "PHP 155,000,000.00",
    "budget_value": 155000000.0,
    "implementingAgency": "Central Office",
    "proponent": "Central Office",
    "submitted": "—",
    "flags": {
      "similarProject": false,
      "poorlySituated": false,
      "contractorIssues": false
    },
    "lat": 14.075336299203205,
    "lng": 122.99871158754314,
    "year": 2026
  },
  {
    "id": "P-2026-0863",
    "title": "Construction of Flood Control Structure along Manil River at Manil Bridge Section (B00519MN) along Sindangan-Liloy Road (S01142MN), Leon T. Postigo, Zamboanga del Norte",
    "region": "Region IX",
    "province": "Zamboanga del Norte",
    "city": "Leon T. Postigo",
    "barangay": "—",
    "status": "Proposed",
    "budget": "PHP 155,000,000.00",
    "budget_value": 155000000.0,
    "implementingAgency": "Central Office",
    "proponent": "Central Office",
    "submitted": "—",
    "flags": {
      "similarProject": false,
      "poorlySituated": false,
      "contractorIssues": false
    },
    "lat": 8.165131777665572,
    "lng": 122.95127675095227,
    "year": 2026
  },
  {
    "id": "P-2026-0867",
    "title": "Construction of Flood Control Structure, Aguada River, Aguada Br. Section (BO0001BL) with Esplanade along Basilan Circumferential Road (S00002BL), Isabela City",
    "region": "Region IX",
    "province": "Basilan",
    "city": "Isabela City",
    "barangay": "—",
    "status": "Proposed",
    "budget": "PHP 155,000,000.00",
    "budget_value": 155000000.0,
    "implementingAgency": "Central Office",
    "proponent": "Central Office",
    "submitted": "—",
    "flags": {
      "similarProject": false,
      "poorlySituated": false,
      "contractorIssues": false
    },
    "lat": 6.549233701818385,
    "lng": 122.03427737533995,
    "year": 2026
  },
  {
    "id": "P-2026-1594",
    "title": "Construction of Flood Control Structure along Agno River, Barangay Armancosiling Norte - Barangay Armancosiling Sur, Bayambang, Pangasinan",
    "region": "Region I",
    "province": "Pangasinan",
    "city": "Bayambang",
    "barangay": "—",
    "status": "Proposed",
    "budget": "PHP 155,000,000.00",
    "budget_value": 155000000.0,
    "implementingAgency": "Central Office",
    "proponent": "Central Office",
    "submitted": "—",
    "flags": {
      "similarProject": false,
      "poorlySituated": false,
      "contractorIssues": false
    },
    "lat": 15.805144320176572,
    "lng": 120.43745760590475,
    "year": 2026
  },
  {
    "id": "P-2026-1595",
    "title": "Construction of Flood Control Structure along Agno River, Barangay Manambong Norte - Barangay Manambong Sur, Bayambang, Pangasinan",
    "region": "Region I",
    "province": "Pangasinan",
    "city": "Bayambang",
    "barangay": "—",
    "status": "Proposed",
    "budget": "PHP 155,000,000.00",
    "budget_value": 155000000.0,
    "implementingAgency": "Central Office",
    "proponent": "Central Office",
    "submitted": "—",
    "flags": {
      "similarProject": false,
      "poorlySituated": false,
      "contractorIssues": false
    },
    "lat": 15.805144320176572,
    "lng": 120.43745760590475,
    "year": 2026
  },
  {
    "id": "P-2026-1626",
    "title": "Construction of Dalimuno Flood Control Structure along Chico River, Dalimuno, Tabuk City, Kalinga",
    "region": "Cordillera Administrative Region",
    "province": "Kalinga",
    "city": "Tabuk City",
    "barangay": "—",
    "status": "Proposed",
    "budget": "PHP 155,000,000.00",
    "budget_value": 155000000.0,
    "implementingAgency": "Central Office",
    "proponent": "Central Office",
    "submitted": "—",
    "flags": {
      "similarProject": false,
      "poorlySituated": false,
      "contractorIssues": false
    },
    "lat": 17.436634947326706,
    "lng": 121.31202545721573,
    "year": 2026
  },
  {
    "id": "P-2026-1814",
    "title": "Construction of Bicol River Flood Mitigation Structure, Barangay Cagbibi, Pamplona, Camarines Sur",
    "region": "Region V",
    "province": "Camarines Sur",
    "city": "Pamplona",
    "barangay": "—",
    "status": "Proposed",
    "budget": "PHP 155,000,000.00",
    "budget_value": 155000000.0,
    "implementingAgency": "Central Office",
    "proponent": "Central Office",
    "submitted": "—",
    "flags": {
      "similarProject": false,
      "poorlySituated": false,
      "contractorIssues": false
    },
    "lat": 13.628911574157382,
    "lng": 123.0974546240624,
    "year": 2026
  },
  {
    "id": "P-2026-1857",
    "title": "Construction of Flood Control Structure of Malogo River, Abut. \"B\", Victorias City, Negros Occidental",
    "region": "Region VI",
    "province": "Negros Occidental",
    "city": "Victorias City",
    "barangay": "—",
    "status": "Proposed",
    "budget": "PHP 155,000,000.00",
    "budget_value": 155000000.0,
    "implementingAgency": "Central Office",
    "proponent": "Central Office",
    "submitted": "—",
    "flags": {
      "similarProject": false,
      "poorlySituated": false,
      "contractorIssues": false
    },
    "lat": 10.450222625745488,
    "lng": 123.00340905686686,
    "year": 2026
  },
  {
    "id": "P-2026-1888",
    "title": "Construction of Flood Control Structure along Binahaan River, Barangay San Isidro, Tanauan, Leyte",
    "region": "Region VIII",
    "province": "Leyte",
    "city": "Tanauan",
    "barangay": "—",
    "status": "Proposed",
    "budget": "PHP 155,000,000.00",
    "budget_value": 155000000.0,
    "implementingAgency": "Central Office",
    "proponent": "Central Office",
    "submitted": "—",
    "flags": {
      "similarProject": false,
      "poorlySituated": false,
      "contractorIssues": false
    },
    "lat": 11.09049248996987,
    "lng": 124.95285484154108,
    "year": 2026
  },
  {
    "id": "P-2026-1589",
    "title": "Construction of Flood Control and Drainage Structures along Patog Cawan River, Barangay Pantal, Dagupan City, Pangasinan",
    "region": "Region I",
    "province": "Pangasinan",
    "city": "Dagupan City",
    "barangay": "—",
    "status": "Proposed",
    "budget": "PHP 154,000,000.00",
    "budget_value": 154000000.0,
    "implementingAgency": "Central Office",
    "proponent": "Central Office",
    "submitted": "—",
    "flags": {
      "similarProject": false,
      "poorlySituated": false,
      "contractorIssues": false
    },
    "lat": 16.05192113960711,
    "lng": 120.33853805697473,
    "year": 2026
  },
  {
    "id": "P-2026-1903",
    "title": "Construction of Flood Mitigation Structure along Gamay River, Barangay Cadacan, Gamay, Northern Samar",
    "region": "Region VIII",
    "province": "Northern Samar",
    "city": "Gamay",
    "barangay": "—",
    "status": "Proposed",
    "budget": "PHP 153,000,000.00",
    "budget_value": 153000000.0,
    "implementingAgency": "Central Office",
    "proponent": "Central Office",
    "submitted": "—",
    "flags": {
      "similarProject": false,
      "poorlySituated": false,
      "contractorIssues": false
    },
    "lat": 12.393893063314582,
    "lng": 125.26038750537046,
    "year": 2026
  },
  {
    "id": "P-2026-0989",
    "title": "Construction of Flood Mitigation Structure, Agay Bridge along Agay River (Downstream), Barangay Los Angeles, Butuan City, Agusan del Norte",
    "region": "Region XI",
    "province": "Agusan del Norte",
    "city": "Butuan City",
    "barangay": "—",
    "status": "Proposed",
    "budget": "PHP 152,000,000.00",
    "budget_value": 152000000.0,
    "implementingAgency": "Central Office",
    "proponent": "Central Office",
    "submitted": "—",
    "flags": {
      "similarProject": false,
      "poorlySituated": false,
      "contractorIssues": false
    },
    "lat": 9.025997185209178,
    "lng": 125.51837723314888,
    "year": 2026
  },
  {
    "id": "P-2026-1898",
    "title": "Construction of Flood Control Structure along Sulat River, Barangay Sto. Nifio, Sulat, Eastern Samar",
    "region": "Region VIII",
    "province": "Eastern Samar",
    "city": "Sulat",
    "barangay": "—",
    "status": "Proposed",
    "budget": "PHP 152,000,000.00",
    "budget_value": 152000000.0,
    "implementingAgency": "Central Office",
    "proponent": "Central Office",
    "submitted": "—",
    "flags": {
      "similarProject": false,
      "poorlySituated": false,
      "contractorIssues": false
    },
    "lat": 11.807586757858225,
    "lng": 125.43300536808542,
    "year": 2026
  },
  {
    "id": "P-2026-0155",
    "title": "Construction of Flood Control Structure along Agno and Tributary Rivers, Phase 1, Malasiqui, Pangasinan",
    "region": "Region I",
    "province": "Pangasinan",
    "city": "Malasiqui",
    "barangay": "—",
    "status": "Proposed",
    "budget": "PHP 150,000,000.00",
    "budget_value": 150000000.0,
    "implementingAgency": "Central Office",
    "proponent": "Central Office",
    "submitted": "—",
    "flags": {
      "similarProject": false,
      "poorlySituated": false,
      "contractorIssues": false
    },
    "lat": 15.905962799594883,
    "lng": 120.4496237,
    "year": 2026
  },
  {
    "id": "P-2026-0156",
    "title": "Construction of Flood Control Structure along Agno and Tributary Rivers, Phase 2, Malasiqui, Pangasinan",
    "region": "Region I",
    "province": "Pangasinan",
    "city": "Malasiqui",
    "barangay": "—",
    "status": "Proposed",
    "budget": "PHP 150,000,000.00",
    "budget_value": 150000000.0,
    "implementingAgency": "Central Office",
    "proponent": "Central Office",
    "submitted": "—",
    "flags": {
      "similarProject": false,
      "poorlySituated": false,
      "contractorIssues": false
    },
    "lat": 15.905962799594883,
    "lng": 120.4496237,
    "year": 2026
  },
  {
    "id": "P-2026-0157",
    "title": "Construction of Flood Control Structure along Agno and Tributary Rivers, Phase 2, San Carlos, Pangasinan",
    "region": "Region I",
    "province": "Pangasinan",
    "city": "San Carlos",
    "barangay": "—",
    "status": "Proposed",
    "budget": "PHP 150,000,000.00",
    "budget_value": 150000000.0,
    "implementingAgency": "Central Office",
    "proponent": "Central Office",
    "submitted": "—",
    "flags": {
      "similarProject": false,
      "poorlySituated": false,
      "contractorIssues": false
    },
    "lat": 15.988238629506368,
    "lng": 120.39113135034655,
    "year": 2026
  },
  {
    "id": "P-2026-0158",
    "title": "Construction of Flood Control Structure along Agno and Tributary Rivers, Phase 3, Malasiqui, Pangasinan",
    "region": "Region I",
    "province": "Pangasinan",
    "city": "Malasiqui",
    "barangay": "—",
    "status": "Proposed",
    "budget": "PHP 150,000,000.00",
    "budget_value": 150000000.0,
    "implementingAgency": "Central Office",
    "proponent": "Central Office",
    "submitted": "—",
    "flags": {
      "similarProject": false,
      "poorlySituated": false,
      "contractorIssues": false
    },
    "lat": 15.905962799594883,
    "lng": 120.4496237,
    "year": 2026
  },
  {
    "id": "P-2026-0159",
    "title": "Construction of Flood Control Structure along Agno and Tributary Rivers, Phase 3, San Carlos, Pangasinan",
    "region": "Region I",
    "province": "Pangasinan",
    "city": "San Carlos",
    "barangay": "—",
    "status": "Proposed",
    "budget": "PHP 150,000,000.00",
    "budget_value": 150000000.0,
    "implementingAgency": "Central Office",
    "proponent": "Central Office",
    "submitted": "—",
    "flags": {
      "similarProject": false,
      "poorlySituated": false,
      "contractorIssues": false
    },
    "lat": 15.988238629506368,
    "lng": 120.39113135034655,
    "year": 2026
  },
  {
    "id": "P-2026-0165",
    "title": "Construction of Flood Control Structure along Amburayan River Barangay Old Central - Ilocano, Sudipen, La union",
    "region": "Region I",
    "province": "La Union",
    "city": "Sudipen",
    "barangay": "—",
    "status": "Proposed",
    "budget": "PHP 150,000,000.00",
    "budget_value": 150000000.0,
    "implementingAgency": "Central Office",
    "proponent": "Central Office",
    "submitted": "—",
    "flags": {
      "similarProject": false,
      "poorlySituated": false,
      "contractorIssues": false
    },
    "lat": 16.873888878399715,
    "lng": 120.4809303506891,
    "year": 2026
  },
  {
    "id": "P-2026-0168",
    "title": "Construction of Flood Control Structure along Angalacan - Bued River, Phase 1, Embarcadero - Guesang, Mangaidan, Pangasinan",
    "region": "Region I",
    "province": "Pangasinan",
    "city": "Mangaidan",
    "barangay": "—",
    "status": "Proposed",
    "budget": "PHP 150,000,000.00",
    "budget_value": 150000000.0,
    "implementingAgency": "Central Office",
    "proponent": "Central Office",
    "submitted": "—",
    "flags": {
      "similarProject": false,
      "poorlySituated": false,
      "contractorIssues": false
    },
    "lat": 15.988238629506368,
    "lng": 120.39113135034655,
    "year": 2026
  },
  {
    "id": "P-2026-0169",
    "title": "Construction of Flood Control Structure along Angalacan - Bued River, Phase 2, Embarcadero - Guesang, Mangaldan, Pangasinan",
    "region": "Region I",
    "province": "Pangasinan",
    "city": "Mangaldan",
    "barangay": "—",
    "status": "Proposed",
    "budget": "PHP 150,000,000.00",
    "budget_value": 150000000.0,
    "implementingAgency": "Central Office",
    "proponent": "Central Office",
    "submitted": "—",
    "flags": {
      "similarProject": false,
      "poorlySituated": false,
      "contractorIssues": false
    },
    "lat": 16.069672549915044,
    "lng": 120.40431726555629,
    "year": 2026
  },
  {
    "id": "P-2026-0170",
    "title": "Construction of Flood Control Structure along Angalacan - Bued River, Phase 3, Embarcadero - Guesang, Mangaldan, Pangasinan",
    "region": "Region I",
    "province": "Pangasinan",
    "city": "Mangaldan",
    "barangay": "—",
    "status": "Proposed",
    "budget": "PHP 150,000,000.00",
    "budget_value": 150000000.0,
    "implementingAgency": "Central Office",
    "proponent": "Central Office",
    "submitted": "—",
    "flags": {
      "similarProject": false,
      "poorlySituated": false,
      "contractorIssues": false
    },
    "lat": 16.069672549915044,
    "lng": 120.40431726555629,
    "year": 2026
  },
  {
    "id": "P-2026-0182",
    "title": "Construction of Flood Control Structure along Bued River, Downstream of Macayug Bridge, Mangaldan, Pangasinan",
    "region": "Region I",
    "province": "Pangasinan",
    "city": "Mangaldan",
    "barangay": "—",
    "status": "Proposed",
    "budget": "PHP 150,000,000.00",
    "budget_value": 150000000.0,
    "implementingAgency": "Central Office",
    "proponent": "Central Office",
    "submitted": "—",
    "flags": {
      "similarProject": false,
      "poorlySituated": false,
      "contractorIssues": false
    },
    "lat": 16.069672549915044,
    "lng": 120.40431726555629,
    "year": 2026
  },
  {
    "id": "P-2026-0183",
    "title": "Construction of Flood Control Structure along Bued River, Upstream of Macayug Bridge, Mangaldan, Pangasinan",
    "region": "Region I",
    "province": "Pangasinan",
    "city": "Mangaldan",
    "barangay": "—",
    "status": "Proposed",
    "budget": "PHP 150,000,000.00",
    "budget_value": 150000000.0,
    "implementingAgency": "Central Office",
    "proponent": "Central Office",
    "submitted": "—",
    "flags": {
      "similarProject": false,
      "poorlySituated": false,
      "contractorIssues": false
    },
    "lat": 16.069672549915044,
    "lng": 120.40431726555629,
    "year": 2026
  },
  {
    "id": "P-2026-0204",
    "title": "Construction of Flood Control Structure, Package 1, Binalonan - Urdaneta City, Pangasinan",
    "region": "Region I",
    "province": "Pangasinan",
    "city": "Binalonan - Urdaneta City",
    "barangay": "—",
    "status": "Proposed",
    "budget": "PHP 150,000,000.00",
    "budget_value": 150000000.0,
    "implementingAgency": "Central Office",
    "proponent": "Central Office",
    "submitted": "—",
    "flags": {
      "similarProject": false,
      "poorlySituated": false,
      "contractorIssues": false
    },
    "lat": 15.988238629506368,
    "lng": 120.39113135034655,
    "year": 2026
  },
  {
    "id": "P-2026-0214",
    "title": "Construction of River Protection System along Agno and Allied Rivers, Phase 1, Bayambang, Pangasinan",
    "region": "Region I",
    "province": "Pangasinan",
    "city": "Bayambang",
    "barangay": "—",
    "status": "Proposed",
    "budget": "PHP 150,000,000.00",
    "budget_value": 150000000.0,
    "implementingAgency": "Central Office",
    "proponent": "Central Office",
    "submitted": "—",
    "flags": {
      "similarProject": false,
      "poorlySituated": false,
      "contractorIssues": false
    },
    "lat": 15.805144320176572,
    "lng": 120.43745760590475,
    "year": 2026
  },
  {
    "id": "P-2026-0215",
    "title": "Construction of River Protection System along Agno and Allied Rivers, Phase 1, Santa Maria-Balungao, Pangasinan",
    "region": "Region I",
    "province": "Pangasinan",
    "city": "Santa Maria-Balungao",
    "barangay": "—",
    "status": "Proposed",
    "budget": "PHP 150,000,000.00",
    "budget_value": 150000000.0,
    "implementingAgency": "Central Office",
    "proponent": "Central Office",
    "submitted": "—",
    "flags": {
      "similarProject": false,
      "poorlySituated": false,
      "contractorIssues": false
    },
    "lat": 15.988238629506368,
    "lng": 120.39113135034655,
    "year": 2026
  },
  {
    "id": "P-2026-0217",
    "title": "Construction of River Protection System along Agno and Allied Rivers, Phase 2, Bayambang, Pangasinan",
    "region": "Region I",
    "province": "Pangasinan",
    "city": "Bayambang",
    "barangay": "—",
    "status": "Proposed",
    "budget": "PHP 150,000,000.00",
    "budget_value": 150000000.0,
    "implementingAgency": "Central Office",
    "proponent": "Central Office",
    "submitted": "—",
    "flags": {
      "similarProject": false,
      "poorlySituated": false,
      "contractorIssues": false
    },
    "lat": 15.805144320176572,
    "lng": 120.43745760590475,
    "year": 2026
  },
  {
    "id": "P-2026-0218",
    "title": "Construction of River Protection System along Agno and Allied Rivers, Phase 2, Santa Maria-Balungao, Pangasinan",
    "region": "Region I",
    "province": "Pangasinan",
    "city": "Santa Maria-Balungao",
    "barangay": "—",
    "status": "Proposed",
    "budget": "PHP 150,000,000.00",
    "budget_value": 150000000.0,
    "implementingAgency": "Central Office",
    "proponent": "Central Office",
    "submitted": "—",
    "flags": {
      "similarProject": false,
      "poorlySituated": false,
      "contractorIssues": false
    },
    "lat": 15.988238629506368,
    "lng": 120.39113135034655,
    "year": 2026
  },
  {
    "id": "P-2026-0219",
    "title": "Construction of River Protection System along Agno and Allied Rivers, Phase 3, Bayambang, Pangasinan",
    "region": "Region I",
    "province": "Pangasinan",
    "city": "Bayambang",
    "barangay": "—",
    "status": "Proposed",
    "budget": "PHP 150,000,000.00",
    "budget_value": 150000000.0,
    "implementingAgency": "Central Office",
    "proponent": "Central Office",
    "submitted": "—",
    "flags": {
      "similarProject": false,
      "poorlySituated": false,
      "contractorIssues": false
    },
    "lat": 15.805144320176572,
    "lng": 120.43745760590475,
    "year": 2026
  },
  {
    "id": "P-2026-0220",
    "title": "Construction of River Protection System along Agno and Allied Rivers, Phase 3, Santa Maria-Balungao, Pangasinan",
    "region": "Region I",
    "province": "Pangasinan",
    "city": "Santa Maria-Balungao",
    "barangay": "—",
    "status": "Proposed",
    "budget": "PHP 150,000,000.00",
    "budget_value": 150000000.0,
    "implementingAgency": "Central Office",
    "proponent": "Central Office",
    "submitted": "—",
    "flags": {
      "similarProject": false,
      "poorlySituated": false,
      "contractorIssues": false
    },
    "lat": 15.988238629506368,
    "lng": 120.39113135034655,
    "year": 2026
  },
  {
    "id": "P-2026-0221",
    "title": "Construction of River Protection System along Agno, Phase 1, San Juan, Ingalera and Allied Rivers, Malasiqui, Pangasinan",
    "region": "Region I",
    "province": "Pangasinan",
    "city": "Malasiqui",
    "barangay": "—",
    "status": "Proposed",
    "budget": "PHP 150,000,000.00",
    "budget_value": 150000000.0,
    "implementingAgency": "Central Office",
    "proponent": "Central Office",
    "submitted": "—",
    "flags": {
      "similarProject": false,
      "poorlySituated": false,
      "contractorIssues": false
    },
    "lat": 15.905962799594883,
    "lng": 120.4496237,
    "year": 2026
  },
  {
    "id": "P-2026-0222",
    "title": "Construction of River Protection System along Agno, Phase 2, San Juan, Ingalera and Allied Rivers, Malasiqui, Pangasinan",
    "region": "Region I",
    "province": "Pangasinan",
    "city": "Malasiqui",
    "barangay": "—",
    "status": "Proposed",
    "budget": "PHP 150,000,000.00",
    "budget_value": 150000000.0,
    "implementingAgency": "Central Office",
    "proponent": "Central Office",
    "submitted": "—",
    "flags": {
      "similarProject": false,
      "poorlySituated": false,
      "contractorIssues": false
    },
    "lat": 15.905962799594883,
    "lng": 120.4496237,
    "year": 2026
  },
  {
    "id": "P-2026-0223",
    "title": "Construction of River Protection System along Agno, Phase 3, San Juan, Ingalera and Allied Rivers, Malasiqui, Pangasinan",
    "region": "Region I",
    "province": "Pangasinan",
    "city": "Malasiqui",
    "barangay": "—",
    "status": "Proposed",
    "budget": "PHP 150,000,000.00",
    "budget_value": 150000000.0,
    "implementingAgency": "Central Office",
    "proponent": "Central Office",
    "submitted": "—",
    "flags": {
      "similarProject": false,
      "poorlySituated": false,
      "contractorIssues": false
    },
    "lat": 15.905962799594883,
    "lng": 120.4496237,
    "year": 2026
  },
  {
    "id": "P-2026-0224",
    "title": "Construction of River Protection System along Agno, San Juan, Ingalera and Allied Rivers, Phase 1, Mapandan, Pangasinan",
    "region": "Region I",
    "province": "Pangasinan",
    "city": "Mapandan",
    "barangay": "—",
    "status": "Proposed",
    "budget": "PHP 150,000,000.00",
    "budget_value": 150000000.0,
    "implementingAgency": "Central Office",
    "proponent": "Central Office",
    "submitted": "—",
    "flags": {
      "similarProject": false,
      "poorlySituated": false,
      "contractorIssues": false
    },
    "lat": 16.025254462965254,
    "lng": 120.45331862793344,
    "year": 2026
  },
  {
    "id": "P-2026-0225",
    "title": "Construction of River Protection System along Agno, San Juan, Ingalera and Allied Rivers, Phase 2, Mapandan, Pangasinan",
    "region": "Region I",
    "province": "Pangasinan",
    "city": "Mapandan",
    "barangay": "—",
    "status": "Proposed",
    "budget": "PHP 150,000,000.00",
    "budget_value": 150000000.0,
    "implementingAgency": "Central Office",
    "proponent": "Central Office",
    "submitted": "—",
    "flags": {
      "similarProject": false,
      "poorlySituated": false,
      "contractorIssues": false
    },
    "lat": 16.025254462965254,
    "lng": 120.45331862793344,
    "year": 2026
  },
  {
    "id": "P-2026-0242",
    "title": "Rehabilitation of Dike, Phase 2, Barangay Nangalisan-Nalbo-Tangid, Laoag City, Ilocos Norte",
    "region": "Region I",
    "province": "Ilocos Norte",
    "city": "Laoag City",
    "barangay": "—",
    "status": "Proposed",
    "budget": "PHP 150,000,000.00",
    "budget_value": 150000000.0,
    "implementingAgency": "Central Office",
    "proponent": "Central Office",
    "submitted": "—",
    "flags": {
      "similarProject": false,
      "poorlySituated": false,
      "contractorIssues": false
    },
    "lat": 18.157011991252663,
    "lng": 120.63535528454372,
    "year": 2026
  },
  {
    "id": "P-2026-0259",
    "title": "Construction of Flood Control Structure along Tanglag - Mabunot Road, Tanglag, Lubuagan, Kalinga",
    "region": "Cordillera Administrative Region",
    "province": "Kalinga",
    "city": "Lubuagan",
    "barangay": "—",
    "status": "Proposed",
    "budget": "PHP 150,000,000.00",
    "budget_value": 150000000.0,
    "implementingAgency": "Central Office",
    "proponent": "Central Office",
    "submitted": "—",
    "flags": {
      "similarProject": false,
      "poorlySituated": false,
      "contractorIssues": false
    },
    "lat": 17.353613632499915,
    "lng": 121.1772426083314,
    "year": 2026
  },
  {
    "id": "P-2026-0273",
    "title": "Construction of Wanayon Flood Control Structure, Tomiangan, Pasil, Kalinga",
    "region": "Cordillera Administrative Region",
    "province": "Kalinga",
    "city": "Pasil",
    "barangay": "—",
    "status": "Proposed",
    "budget": "PHP 150,000,000.00",
    "budget_value": 150000000.0,
    "implementingAgency": "Central Office",
    "proponent": "Central Office",
    "submitted": "—",
    "flags": {
      "similarProject": false,
      "poorlySituated": false,
      "contractorIssues": false
    },
    "lat": 17.386938930650977,
    "lng": 121.14559215735788,
    "year": 2026
  },
  {
    "id": "P-2026-0279",
    "title": "Construction of Flood Control and Drainage Structure (FCDS) along Sta. Cruz River, Salinas Section 3, Bagabag, Nueva Vizcaya",
    "region": "Region II",
    "province": "Nueva Vizcaya",
    "city": "Bagabag",
    "barangay": "—",
    "status": "Proposed",
    "budget": "PHP 150,000,000.00",
    "budget_value": 150000000.0,
    "implementingAgency": "Central Office",
    "proponent": "Central Office",
    "submitted": "—",
    "flags": {
      "similarProject": false,
      "poorlySituated": false,
      "contractorIssues": false
    },
    "lat": 16.606425681495132,
    "lng": 121.24788116681566,
    "year": 2026
  },
  {
    "id": "P-2026-0338",
    "title": "Rehabilitation of Flood Control Structure along Lamut River, Sta. Lucia Section, Bagabag, Nueva Vizcaya",
    "region": "Region II",
    "province": "Nueva Vizcaya",
    "city": "Bagabag",
    "barangay": "—",
    "status": "Proposed",
    "budget": "PHP 150,000,000.00",
    "budget_value": 150000000.0,
    "implementingAgency": "Central Office",
    "proponent": "Central Office",
    "submitted": "—",
    "flags": {
      "similarProject": false,
      "poorlySituated": false,
      "contractorIssues": false
    },
    "lat": 16.606425681495132,
    "lng": 121.24788116681566,
    "year": 2026
  },
  {
    "id": "P-2026-0444",
    "title": "Construction of Flood Control Structure, Masalasa Creek, Section 6, Tarlac City, Tarlac",
    "region": "Region III",
    "province": "Tarlac",
    "city": "Tarlac City",
    "barangay": "—",
    "status": "Proposed",
    "budget": "PHP 150,000,000.00",
    "budget_value": 150000000.0,
    "implementingAgency": "Central Office",
    "proponent": "Central Office",
    "submitted": "—",
    "flags": {
      "similarProject": false,
      "poorlySituated": false,
      "contractorIssues": false
    },
    "lat": 15.57167963267228,
    "lng": 120.55214861830808,
    "year": 2026
  },
  {
    "id": "P-2026-0452",
    "title": "Construction of Flood Control Structure, Sabang, Baler, Aurora",
    "region": "Region III",
    "province": "Aurora",
    "city": "Baler",
    "barangay": "—",
    "status": "Proposed",
    "budget": "PHP 150,000,000.00",
    "budget_value": 150000000.0,
    "implementingAgency": "Central Office",
    "proponent": "Central Office",
    "submitted": "—",
    "flags": {
      "similarProject": false,
      "poorlySituated": false,
      "contractorIssues": false
    },
    "lat": 15.957341324354092,
    "lng": 121.57014837659348,
    "year": 2026
  },
  {
    "id": "P-2026-0460",
    "title": "Construction of Flood Control Structure, Suklayin River, Baler, Aurora",
    "region": "Region III",
    "province": "Aurora",
    "city": "Baler",
    "barangay": "—",
    "status": "Proposed",
    "budget": "PHP 150,000,000.00",
    "budget_value": 150000000.0,
    "implementingAgency": "Central Office",
    "proponent": "Central Office",
    "submitted": "—",
    "flags": {
      "similarProject": false,
      "poorlySituated": false,
      "contractorIssues": false
    },
    "lat": 15.957341324354092,
    "lng": 121.57014837659348,
    "year": 2026
  },
  {
    "id": "P-2026-0472",
    "title": "Construction of Flood Mitigation Structure along Dila-Dila Creek, Phase 2-B, Dinalupihan, Bataan",
    "region": "Region III",
    "province": "Bataan",
    "city": "Dinalupihan",
    "barangay": "—",
    "status": "Proposed",
    "budget": "PHP 150,000,000.00",
    "budget_value": 150000000.0,
    "implementingAgency": "Central Office",
    "proponent": "Central Office",
    "submitted": "—",
    "flags": {
      "similarProject": false,
      "poorlySituated": false,
      "contractorIssues": false
    },
    "lat": 14.867877692866402,
    "lng": 120.43803747455269,
    "year": 2026
  },
  {
    "id": "P-2026-0500",
    "title": "Construction of Flood Mitigation Structure, Sta. 0 + 000 - Sta. 1 + 264.00, Santa Monica, Sasmuan, Pampanga",
    "region": "Region III",
    "province": "Pampanga",
    "city": "Sasmuan",
    "barangay": "—",
    "status": "Proposed",
    "budget": "PHP 150,000,000.00",
    "budget_value": 150000000.0,
    "implementingAgency": "Central Office",
    "proponent": "Central Office",
    "submitted": "—",
    "flags": {
      "similarProject": false,
      "poorlySituated": false,
      "contractorIssues": false
    },
    "lat": 15.0477019,
    "lng": 120.66693146756865,
    "year": 2026
  },
  {
    "id": "P-2026-0512",
    "title": "Construction of Obando Road Dike (Tawiran -Paliwas Section), Sta.01 + 200 - Sta. 01 + 330, Obando, Bulacan",
    "region": "Region III",
    "province": "Bulacan",
    "city": "Obando",
    "barangay": "—",
    "status": "Proposed",
    "budget": "PHP 150,000,000.00",
    "budget_value": 150000000.0,
    "implementingAgency": "Central Office",
    "proponent": "Central Office",
    "submitted": "—",
    "flags": {
      "similarProject": false,
      "poorlySituated": false,
      "contractorIssues": false
    },
    "lat": 14.715285879784162,
    "lng": 120.92587148567392,
    "year": 2026
  },
  {
    "id": "P-2026-0517",
    "title": "Construction of Slope Protection Structure along Are Creek, Apalit, Pampanga, Downstream to Barangay Telacsan, Macabebe, Pampanga",
    "region": "Region III",
    "province": "Pampanga",
    "city": "Macabebe",
    "barangay": "—",
    "status": "Proposed",
    "budget": "PHP 150,000,000.00",
    "budget_value": 150000000.0,
    "implementingAgency": "Central Office",
    "proponent": "Central Office",
    "submitted": "—",
    "flags": {
      "similarProject": false,
      "poorlySituated": false,
      "contractorIssues": false
    },
    "lat": 14.94286710845103,
    "lng": 120.72300979672472,
    "year": 2026
  },
  {
    "id": "P-2026-0518",
    "title": "Construction of Slope Protection Structure Along Banayam River, Segment R, Bagac, Bataan",
    "region": "Region III",
    "province": "Bataan",
    "city": "Bagac",
    "barangay": "—",
    "status": "Proposed",
    "budget": "PHP 150,000,000.00",
    "budget_value": 150000000.0,
    "implementingAgency": "Central Office",
    "proponent": "Central Office",
    "submitted": "—",
    "flags": {
      "similarProject": false,
      "poorlySituated": false,
      "contractorIssues": false
    },
    "lat": 14.58574376475168,
    "lng": 120.41323001293055,
    "year": 2026
  },
  {
    "id": "P-2026-0520",
    "title": "Construction of Slope Protection Structure along Colo River, Phase 1, Dulet Section, Dinalupihan, Bataan",
    "region": "Region III",
    "province": "Bataan",
    "city": "Dinalupihan",
    "barangay": "—",
    "status": "Proposed",
    "budget": "PHP 150,000,000.00",
    "budget_value": 150000000.0,
    "implementingAgency": "Central Office",
    "proponent": "Central Office",
    "submitted": "—",
    "flags": {
      "similarProject": false,
      "poorlySituated": false,
      "contractorIssues": false
    },
    "lat": 14.867877692866402,
    "lng": 120.43803747455269,
    "year": 2026
  },
  {
    "id": "P-2026-0521",
    "title": "Construction of Slope Protection Structure Along Colo River, Segment B, Pinulot - San Pablo Section, Dinalupihan, Bataan",
    "region": "Region III",
    "province": "Bataan",
    "city": "Dinalupihan",
    "barangay": "—",
    "status": "Proposed",
    "budget": "PHP 150,000,000.00",
    "budget_value": 150000000.0,
    "implementingAgency": "Central Office",
    "proponent": "Central Office",
    "submitted": "—",
    "flags": {
      "similarProject": false,
      "poorlySituated": false,
      "contractorIssues": false
    },
    "lat": 14.867877692866402,
    "lng": 120.43803747455269,
    "year": 2026
  },
  {
    "id": "P-2026-0522",
    "title": "Construction of Slope Protection Structure Along Colo River, Segment B, Saguing - San Benito Section, Dinalupihan, Bataan",
    "region": "Region III",
    "province": "Bataan",
    "city": "Dinalupihan",
    "barangay": "—",
    "status": "Proposed",
    "budget": "PHP 150,000,000.00",
    "budget_value": 150000000.0,
    "implementingAgency": "Central Office",
    "proponent": "Central Office",
    "submitted": "—",
    "flags": {
      "similarProject": false,
      "poorlySituated": false,
      "contractorIssues": false
    },
    "lat": 14.867877692866402,
    "lng": 120.43803747455269,
    "year": 2026
  },
  {
    "id": "P-2026-0523",
    "title": "Construction of Slope Protection Structure Along Colo River, Segment B, San Pablo - Roosevelt Section, Dinalupihan, Bataan",
    "region": "Region III",
    "province": "Bataan",
    "city": "Dinalupihan",
    "barangay": "—",
    "status": "Proposed",
    "budget": "PHP 150,000,000.00",
    "budget_value": 150000000.0,
    "implementingAgency": "Central Office",
    "proponent": "Central Office",
    "submitted": "—",
    "flags": {
      "similarProject": false,
      "poorlySituated": false,
      "contractorIssues": false
    },
    "lat": 14.867877692866402,
    "lng": 120.43803747455269,
    "year": 2026
  },
  {
    "id": "P-2026-0524",
    "title": "Construction of Slope Protection Structure Along Dila-Dila Creek, Segment S-T, Dinalupihan, Bataan",
    "region": "Region III",
    "province": "Bataan",
    "city": "Dinalupihan",
    "barangay": "—",
    "status": "Proposed",
    "budget": "PHP 150,000,000.00",
    "budget_value": 150000000.0,
    "implementingAgency": "Central Office",
    "proponent": "Central Office",
    "submitted": "—",
    "flags": {
      "similarProject": false,
      "poorlySituated": false,
      "contractorIssues": false
    },
    "lat": 14.867877692866402,
    "lng": 120.43803747455269,
    "year": 2026
  },
  {
    "id": "P-2026-0527",
    "title": "Construction of Slope Protection Structure Along Lower Paysawan River (Downstream), Barangay Paysawan, Bagac, Bataan",
    "region": "Region III",
    "province": "Bataan",
    "city": "Bagac",
    "barangay": "—",
    "status": "Proposed",
    "budget": "PHP 150,000,000.00",
    "budget_value": 150000000.0,
    "implementingAgency": "Central Office",
    "proponent": "Central Office",
    "submitted": "—",
    "flags": {
      "similarProject": false,
      "poorlySituated": false,
      "contractorIssues": false
    },
    "lat": 14.539619643805894,
    "lng": 120.40187772043362,
    "year": 2026
  },
  {
    "id": "P-2026-0528",
    "title": "Construction of Slope Protection Structure Along Pagalanggang River, San Simon 1 - Tucop Section 3, Dinalupihan, Bataan",
    "region": "Region III",
    "province": "Bataan",
    "city": "Dinalupihan",
    "barangay": "—",
    "status": "Proposed",
    "budget": "PHP 150,000,000.00",
    "budget_value": 150000000.0,
    "implementingAgency": "Central Office",
    "proponent": "Central Office",
    "submitted": "—",
    "flags": {
      "similarProject": false,
      "poorlySituated": false,
      "contractorIssues": false
    },
    "lat": 14.867877692866402,
    "lng": 120.43803747455269,
    "year": 2026
  },
  {
    "id": "P-2026-0537",
    "title": "Construction of Slope Protection Structure along Tukok River, Phase 1, Barangay Ibis, Bagac, Bataan",
    "region": "Region III",
    "province": "Bataan",
    "city": "Bagac",
    "barangay": "—",
    "status": "Proposed",
    "budget": "PHP 150,000,000.00",
    "budget_value": 150000000.0,
    "implementingAgency": "Central Office",
    "proponent": "Central Office",
    "submitted": "—",
    "flags": {
      "similarProject": false,
      "poorlySituated": false,
      "contractorIssues": false
    },
    "lat": 14.58574376475168,
    "lng": 120.41323001293055,
    "year": 2026
  },
  {
    "id": "P-2026-0538",
    "title": "Construction of Slope Protection Structure Along Umagol River, Downstream Segment D, Bagac, Bataan",
    "region": "Region III",
    "province": "Bataan",
    "city": "Bagac",
    "barangay": "—",
    "status": "Proposed",
    "budget": "PHP 150,000,000.00",
    "budget_value": 150000000.0,
    "implementingAgency": "Central Office",
    "proponent": "Central Office",
    "submitted": "—",
    "flags": {
      "similarProject": false,
      "poorlySituated": false,
      "contractorIssues": false
    },
    "lat": 14.58574376475168,
    "lng": 120.41323001293055,
    "year": 2026
  },
  {
    "id": "P-2026-0539",
    "title": "Construction of Slope Protection Structure Along Umagol River, Downstream Segment E, Bagac, Bataan",
    "region": "Region III",
    "province": "Bataan",
    "city": "Bagac",
    "barangay": "—",
    "status": "Proposed",
    "budget": "PHP 150,000,000.00",
    "budget_value": 150000000.0,
    "implementingAgency": "Central Office",
    "proponent": "Central Office",
    "submitted": "—",
    "flags": {
      "similarProject": false,
      "poorlySituated": false,
      "contractorIssues": false
    },
    "lat": 14.58574376475168,
    "lng": 120.41323001293055,
    "year": 2026
  },
  {
    "id": "P-2026-0540",
    "title": "Construction of Slope Protection Structure Along Umagol River, Upstream Segment A, Bagac, Bataan",
    "region": "Region III",
    "province": "Bataan",
    "city": "Bagac",
    "barangay": "—",
    "status": "Proposed",
    "budget": "PHP 150,000,000.00",
    "budget_value": 150000000.0,
    "implementingAgency": "Central Office",
    "proponent": "Central Office",
    "submitted": "—",
    "flags": {
      "similarProject": false,
      "poorlySituated": false,
      "contractorIssues": false
    },
    "lat": 14.58574376475168,
    "lng": 120.41323001293055,
    "year": 2026
  },
  {
    "id": "P-2026-0542",
    "title": "Construction of Slope Protection Structure at Barangay Sta. Maria, Minalin and Paligui, Apalit, Pampanga",
    "region": "Region III",
    "province": "Pampanga",
    "city": "Apalit",
    "barangay": "—",
    "status": "Proposed",
    "budget": "PHP 150,000,000.00",
    "budget_value": 150000000.0,
    "implementingAgency": "Central Office",
    "proponent": "Central Office",
    "submitted": "—",
    "flags": {
      "similarProject": false,
      "poorlySituated": false,
      "contractorIssues": false
    },
    "lat": 14.95764312,
    "lng": 120.76912497061556,
    "year": 2026
  },
  {
    "id": "P-2026-0543",
    "title": "Construction of Slope Protection Structure at Downstream Part of Palaman River, Minalin, Pampanga",
    "region": "Region III",
    "province": "Pampanga",
    "city": "Minalin",
    "barangay": "—",
    "status": "Proposed",
    "budget": "PHP 150,000,000.00",
    "budget_value": 150000000.0,
    "implementingAgency": "Central Office",
    "proponent": "Central Office",
    "submitted": "—",
    "flags": {
      "similarProject": false,
      "poorlySituated": false,
      "contractorIssues": false
    },
    "lat": 14.9641502,
    "lng": 120.686910411053,
    "year": 2026
  },
  {
    "id": "P-2026-0557",
    "title": "Construction of Slope Protection Structure, Upper Dalan Bapor, Sasmuan, Pampanga",
    "region": "Region III",
    "province": "Pampanga",
    "city": "Sasmuan",
    "barangay": "—",
    "status": "Proposed",
    "budget": "PHP 150,000,000.00",
    "budget_value": 150000000.0,
    "implementingAgency": "Central Office",
    "proponent": "Central Office",
    "submitted": "—",
    "flags": {
      "similarProject": false,
      "poorlySituated": false,
      "contractorIssues": false
    },
    "lat": 15.0477019,
    "lng": 120.66693146756865,
    "year": 2026
  },
  {
    "id": "P-2026-0558",
    "title": "Construction of Tarlac City Urban Drainage System, Segment 7, Tarlac City, Tarlac",
    "region": "Region III",
    "province": "Tarlac",
    "city": "Tarlac City",
    "barangay": "—",
    "status": "Proposed",
    "budget": "PHP 150,000,000.00",
    "budget_value": 150000000.0,
    "implementingAgency": "Central Office",
    "proponent": "Central Office",
    "submitted": "—",
    "flags": {
      "similarProject": false,
      "poorlySituated": false,
      "contractorIssues": false
    },
    "lat": 15.57167963267228,
    "lng": 120.55214861830808,
    "year": 2026
  },
  {
    "id": "P-2026-0559",
    "title": "Construction of Tarlac City Urban Drainage System, Segment 8, Tarlac City, Tarlac Pampanga Delta Development Project, Phase III, Calumpit, Bulacan",
    "region": "Region III",
    "province": "Bulacan",
    "city": "Calumpit",
    "barangay": "—",
    "status": "Proposed",
    "budget": "PHP 150,000,000.00",
    "budget_value": 150000000.0,
    "implementingAgency": "Central Office",
    "proponent": "Central Office",
    "submitted": "—",
    "flags": {
      "similarProject": false,
      "poorlySituated": false,
      "contractorIssues": false
    },
    "lat": 14.906996090663958,
    "lng": 120.77177840119816,
    "year": 2026
  },
  {
    "id": "P-2026-0587",
    "title": "Construction of Flood Control Structure along Bugaan River (Downstream) Phase 1, Laurel, Batangas",
    "region": "Region IV",
    "province": "Batangas",
    "city": "Laurel",
    "barangay": "—",
    "status": "Proposed",
    "budget": "PHP 150,000,000.00",
    "budget_value": 150000000.0,
    "implementingAgency": "Central Office",
    "proponent": "Central Office",
    "submitted": "—",
    "flags": {
      "similarProject": false,
      "poorlySituated": false,
      "contractorIssues": false
    },
    "lat": 14.058175226869713,
    "lng": 120.91054785584107,
    "year": 2026
  },
  {
    "id": "P-2026-0588",
    "title": "Construction of Flood Control Structure along Bugaan River (Downstream) Phase 2, Laurel, Batangas",
    "region": "Region IV",
    "province": "Batangas",
    "city": "Laurel",
    "barangay": "—",
    "status": "Proposed",
    "budget": "PHP 150,000,000.00",
    "budget_value": 150000000.0,
    "implementingAgency": "Central Office",
    "proponent": "Central Office",
    "submitted": "—",
    "flags": {
      "similarProject": false,
      "poorlySituated": false,
      "contractorIssues": false
    },
    "lat": 14.058175226869713,
    "lng": 120.91054785584107,
    "year": 2026
  },
  {
    "id": "P-2026-0589",
    "title": "Construction of Flood Control Structure along Bugaan River (Upstream) Phase 1, Laurel, Batangas",
    "region": "Region IV",
    "province": "Batangas",
    "city": "Laurel",
    "barangay": "—",
    "status": "Proposed",
    "budget": "PHP 150,000,000.00",
    "budget_value": 150000000.0,
    "implementingAgency": "Central Office",
    "proponent": "Central Office",
    "submitted": "—",
    "flags": {
      "similarProject": false,
      "poorlySituated": false,
      "contractorIssues": false
    },
    "lat": 14.058175226869713,
    "lng": 120.91054785584107,
    "year": 2026
  },
  {
    "id": "P-2026-0615",
    "title": "Construction of Revetment along Zapote River, Phase 1, Barangay Aniban to Barangay Ligas, Bacoor City, Cavite",
    "region": "Region IV",
    "province": "Cavite",
    "city": "Bacoor City",
    "barangay": "—",
    "status": "Proposed",
    "budget": "PHP 150,000,000.00",
    "budget_value": 150000000.0,
    "implementingAgency": "Central Office",
    "proponent": "Central Office",
    "submitted": "—",
    "flags": {
      "similarProject": false,
      "poorlySituated": false,
      "contractorIssues": false
    },
    "lat": 14.44614330210171,
    "lng": 120.95664137795598,
    "year": 2026
  },
  {
    "id": "P-2026-0616",
    "title": "Construction of Revetment along Zapote River, Phase I, Barangay Molino III, Bacoor City, Cavite",
    "region": "Region IV",
    "province": "Cavite",
    "city": "Bacoor City",
    "barangay": "—",
    "status": "Proposed",
    "budget": "PHP 150,000,000.00",
    "budget_value": 150000000.0,
    "implementingAgency": "Central Office",
    "proponent": "Central Office",
    "submitted": "—",
    "flags": {
      "similarProject": true,
      "poorlySituated": false,
      "contractorIssues": false
    },
    "lat": 14.393521705839373,
    "lng": 120.98422562057388,
    "year": 2026
  },
  {
    "id": "P-2026-0618",
    "title": "Construction of Revetment Wall along Laguna Lakeshore, Barangay Landayan, San Pedro, Laguna",
    "region": "Region IV",
    "province": "Laguna",
    "city": "San Pedro",
    "barangay": "—",
    "status": "Proposed",
    "budget": "PHP 150,000,000.00",
    "budget_value": 150000000.0,
    "implementingAgency": "Central Office",
    "proponent": "Central Office",
    "submitted": "—",
    "flags": {
      "similarProject": false,
      "poorlySituated": false,
      "contractorIssues": false
    },
    "lat": 14.355409255283766,
    "lng": 121.06834205335488,
    "year": 2026
  },
  {
    "id": "P-2026-0629",
    "title": "Construction of Seawall along Tayabas Bay (Package 1), Lucena City, Quezon",
    "region": "Region IV",
    "province": "Quezon",
    "city": "Lucena City",
    "barangay": "—",
    "status": "Proposed",
    "budget": "PHP 150,000,000.00",
    "budget_value": 150000000.0,
    "implementingAgency": "Central Office",
    "proponent": "Central Office",
    "submitted": "—",
    "flags": {
      "similarProject": false,
      "poorlySituated": false,
      "contractorIssues": false
    },
    "lat": 13.974579170518728,
    "lng": 121.98150261254462,
    "year": 2026
  },
  {
    "id": "P-2026-0635",
    "title": "Construction of Slope Protection Structure along Lawaye River, Barangay Poctol, Municipality of San Juan, Batangas",
    "region": "Region IV",
    "province": "Batangas",
    "city": "San Juan",
    "barangay": "—",
    "status": "Proposed",
    "budget": "PHP 150,000,000.00",
    "budget_value": 150000000.0,
    "implementingAgency": "Central Office",
    "proponent": "Central Office",
    "submitted": "—",
    "flags": {
      "similarProject": true,
      "poorlySituated": false,
      "contractorIssues": false
    },
    "lat": 13.817933192771743,
    "lng": 121.44369914361994,
    "year": 2026
  },
  {
    "id": "P-2026-0638",
    "title": "Construction of Slope Protection Structure along Taal Lake Circumferential Road, Agoncillo, Batangas",
    "region": "Region IV",
    "province": "Batangas",
    "city": "Agoncillo",
    "barangay": "—",
    "status": "Proposed",
    "budget": "PHP 150,000,000.00",
    "budget_value": 150000000.0,
    "implementingAgency": "Central Office",
    "proponent": "Central Office",
    "submitted": "—",
    "flags": {
      "similarProject": false,
      "poorlySituated": false,
      "contractorIssues": false
    },
    "lat": 13.943435565719192,
    "lng": 120.92938026981548,
    "year": 2026
  },
  {
    "id": "P-2026-0639",
    "title": "Construction of Slope Protection Structure along Taal Lake Circumferential Road, Balete, Batangas",
    "region": "Region IV",
    "province": "Batangas",
    "city": "Balete",
    "barangay": "—",
    "status": "Proposed",
    "budget": "PHP 150,000,000.00",
    "budget_value": 150000000.0,
    "implementingAgency": "Central Office",
    "proponent": "Central Office",
    "submitted": "—",
    "flags": {
      "similarProject": false,
      "poorlySituated": false,
      "contractorIssues": false
    },
    "lat": 14.01759763985556,
    "lng": 121.09819946591244,
    "year": 2026
  },
  {
    "id": "P-2026-0640",
    "title": "Construction of Slope Protection Structure along Taal Lake Circumferential Road, Tanauan City, Batangas",
    "region": "Region IV",
    "province": "Batangas",
    "city": "Tanauan City",
    "barangay": "—",
    "status": "Proposed",
    "budget": "PHP 150,000,000.00",
    "budget_value": 150000000.0,
    "implementingAgency": "Central Office",
    "proponent": "Central Office",
    "submitted": "—",
    "flags": {
      "similarProject": false,
      "poorlySituated": false,
      "contractorIssues": false
    },
    "lat": 13.881659219675663,
    "lng": 121.01110798496656,
    "year": 2026
  },
  {
    "id": "P-2026-0678",
    "title": "Construction of Donsol River Flood Mitigation Structure, Barangay Dancalan, Donsol, Sorsogon",
    "region": "Region V",
    "province": "Sorsogon",
    "city": "Donsol",
    "barangay": "—",
    "status": "Proposed",
    "budget": "PHP 150,000,000.00",
    "budget_value": 150000000.0,
    "implementingAgency": "Central Office",
    "proponent": "Central Office",
    "submitted": "—",
    "flags": {
      "similarProject": false,
      "poorlySituated": false,
      "contractorIssues": false
    },
    "lat": 12.92118422893939,
    "lng": 123.58490763713796,
    "year": 2026
  },
  {
    "id": "P-2026-0679",
    "title": "Construction of Donsol River Flood Mitigation Structure, Barangay Tupas, Donsol, Sorsogon",
    "region": "Region V",
    "province": "Sorsogon",
    "city": "Donsol",
    "barangay": "—",
    "status": "Proposed",
    "budget": "PHP 150,000,000.00",
    "budget_value": 150000000.0,
    "implementingAgency": "Central Office",
    "proponent": "Central Office",
    "submitted": "—",
    "flags": {
      "similarProject": false,
      "poorlySituated": false,
      "contractorIssues": false
    },
    "lat": 12.922246735643986,
    "lng": 123.5963138718382,
    "year": 2026
  },
  {
    "id": "P-2026-0681",
    "title": "Construction of Flood Control Dike and Drainage System along Taysan-Makabalo River, Legazpi City, Albay",
    "region": "Region V",
    "province": "Albay",
    "city": "Legazpi City",
    "barangay": "—",
    "status": "Proposed",
    "budget": "PHP 150,000,000.00",
    "budget_value": 150000000.0,
    "implementingAgency": "Central Office",
    "proponent": "Central Office",
    "submitted": "—",
    "flags": {
      "similarProject": false,
      "poorlySituated": false,
      "contractorIssues": false
    },
    "lat": 13.213831575161535,
    "lng": 123.6541375117568,
    "year": 2026
  },
  {
    "id": "P-2026-0694",
    "title": "Construction of Flood Control Structure, Phase 4, Barangay San Ramon - Barangay N. Roque, Bulan, Sorsogon",
    "region": "Region V",
    "province": "Sorsogon",
    "city": "Bulan",
    "barangay": "—",
    "status": "Proposed",
    "budget": "PHP 150,000,000.00",
    "budget_value": 150000000.0,
    "implementingAgency": "Central Office",
    "proponent": "Central Office",
    "submitted": "—",
    "flags": {
      "similarProject": false,
      "poorlySituated": false,
      "contractorIssues": false
    },
    "lat": 12.675199204093053,
    "lng": 123.91137324636956,
    "year": 2026
  },
  {
    "id": "P-2026-0707",
    "title": "Construction of Flood Mitigation Structure along Himoragat, Tinambac, Camarines Sur",
    "region": "Region V",
    "province": "Camarines Sur",
    "city": "Tinambac",
    "barangay": "—",
    "status": "Proposed",
    "budget": "PHP 150,000,000.00",
    "budget_value": 150000000.0,
    "implementingAgency": "Central Office",
    "proponent": "Central Office",
    "submitted": "—",
    "flags": {
      "similarProject": true,
      "poorlySituated": false,
      "contractorIssues": false
    },
    "lat": 13.851363571741745,
    "lng": 123.3434761320106,
    "year": 2026
  }
]